[
    {
      "id": 1,
      "name": "1033 Club",
      "address": "1033 Avenue B",
      "city": "San Antonio",
       "state": "Texas",
      "zip": 78215,
      "longitude": -98.480763,
      "latitude": 29.4361164387879
    },
    {
      "latitude": 29.464097,
      "state": "Texas",
      "address": "10619 Westover Hills Blvd",
      "zip": 78215,
      "id": 2,
      "city": "San Antonio",
      "longitude": -98.690386,
      "name": "151 Saloon"
    },
    {
      "id": 3,
      "address": "1174 East Commerce St",
      "zip": 78205,
      "state": "Texas",
      "latitude": 29.420607,
      "city": "San Antonio",
      "longitude": -98.478249,
      "name": "1902 Nightclub"
    },
    {
      "longitude": -98.47844,
      "city": "San Antonio",
      "name": "210 Kapone's",
      "id": 4,
      "address": "1223 East Houston",
      "zip": 78205,
      "state": "Texas",
      "latitude": 29.42519
    },
    {
      "state": "Texas",
      "latitude": 29.524564,
      "id": 5,
      "address": "8779 Wurzbach Rd",
      "zip": 78240,
      "city": "San Antonio",
      "name": "4th Quarter Sports Bar",
      "longitude": -98.569389
    },
    {
      "city": "San Antonio",
      "longitude": -98.487687,
      "name": "502 Bar",
      "address": "502 Embassy Oaks",
      "zip": 78216,
      "id": 6,
      "latitude": 29.563489,
      "state": "Texas"
    },
    {
      "city": "San Antonio",
      "longitude": -98.495141,
      "name": "Abracadabra",
      "address": "Central Park Mall",
      "zip": 78216,
      "id": 7,
      "latitude": 29.4246,
      "state": "Texas"
    },
    {
      "latitude": 29.425725,
      "state": "Texas",
      "zip": 78205,
      "address": "212 College Street",
      "id": 8,
      "city": "San Antonio",
      "longitude": -98.489205,
      "name": "Acapulco Sam's"
    },
    {
      "city": "San Antonio",
      "longitude": -98.45581,
      "name": "Accents",
      "latitude": 29.48484,
      "state": "Texas",
      "zip": 78209,
      "address": "6700 N New Braunfels Ave",
      "id": 9
    },
    {
      "latitude": 29.486839,
      "state": "Texas",
      "zip": 78201,
      "address": "1929 La Manda",
      "id": 10,
      "city": "San Antonio",
      "name": "Acquarium III",
      "longitude": -98.527021
    },
    {
      "city": "San Antonio",
      "name": "After Midnight",
      "longitude": -98.50864,
      "address": "3719 Blanco Rd",
      "zip": 78212,
      "id": 11,
      "latitude": 29.481287,
      "state": "Texas"
    },
    {
      "address": "6205 West Ave.",
      "zip": 78213,
      "id": 12,
      "latitude": 29.518624,
      "state": "Texas",
      "name": "Aggie Park",
      "city": "San Antonio",
      "longitude": -98.526667
    },
    {
      "city": "San Antonio",
      "name": "Alameda Theater",
      "longitude": -98.521993,
      "id": 13,
      "zip": 78207,
      "address": "512 W. Houston",
      "state": "Texas",
      "latitude": 29.42543
    },
    {
      "address": "202 Lamar St",
      "zip": 78202,
      "id": 14,
      "latitude": 29.426962,
      "state": "Texas",
      "longitude": -98.458731,
      "city": "San Antonio",
      "name": "Alamo Beer Company"
    },
    {
      "id": 15,
      "address": "1305 E. Houston St.",
      "zip": 78205,
      "state": "Texas",
      "latitude": 29.425165,
      "city": "San Antonio",
      "name": "Alamo City Music Hall",
      "longitude": -98.47705
    },
    {
      "name": "Alamo Ice House",
      "city": "San Antonio",
      "longitude": -98.481567,
      "state": "Texas",
      "latitude": 29.431847,
      "id": 16,
      "zip": 78215,
      "address": "802 N. Alamo St."
    },
    {
      "state": "Texas",
      "latitude": 29.416871,
      "id": 17,
      "zip": 78203,
      "address": "100 Montana St.",
      "city": "San Antonio",
      "name": "Alamodome",
      "longitude": -98.478756
    },
    {
      "id": 18,
      "zip": 78205,
      "address": "1141 East Commerce St",
      "state": "Texas",
      "latitude": 29.422018,
      "city": "San Antonio",
      "name": "Aldaco's Mexican Restaurant",
      "longitude": -98.479033
    },
    {
      "state": "Texas",
      "latitude": 29.520491,
      "id": 19,
      "zip": 78229,
      "address": "8539 Fredericksburg Rd.",
      "city": "San Antonio",
      "longitude": -98.573751,
      "name": "Aldo's Ristorante Italian"
    },
    {
      "city": "San Antonio",
      "longitude": -62.184068,
      "name": "Alexander's Bar and Café",
      "latitude": 16.653923,
      "state": "Texas",
      "zip": 78212,
      "address": "3422 N. St. Mary's",
      "id": 20
    },
    {
      "city": "San Antonio",
      "longitude": -98.507631,
      "name": "Alfred's",
      "id": 21,
      "address": "2308 Blanco Road",
      "zip": 78212,
      "state": "Texas",
      "latitude": 29.467833
    },
    {
      "city": "San Antonio",
      "longitude": -98.486051,
      "name": "Anaqua Room",
      "latitude": 29.42818,
      "state": "Texas",
      "address": "555 Alamo St.",
      "zip": 78205,
      "id": 22
    },
    {
      "latitude": 29.562078,
      "state": "Texas",
      "address": "13307 San Pedro Ave.",
      "zip": 78216,
      "id": 23,
      "city": "San Antonio",
      "name": "Andrew's 281 Live",
      "longitude": -98.481527
    },
    {
      "city": "Spring Branch",
      "longitude": -98.478884,
      "name": "Anhalt Hall",
      "address": "2390 Anhalt Rd.",
      "zip": 78070,
      "id": 24,
      "latitude": 29.813902,
      "state": "Texas"
    },
    {
      "name": "Annie & Ed's",
      "city": "San Antonio",
      "longitude": -98.417823,
      "id": 25,
      "zip": 78218,
      "address": "2016 Austin HWY",
      "state": "Texas",
      "latitude": 29.502353
    },
    {
      "state": "Texas",
      "latitude": 29.507923,
      "id": 26,
      "address": "7530 Bandera Rd #108",
      "zip": 78238,
      "city": "San Antonio",
      "name": "Antonio Strad Violin",
      "longitude": -98.628778
    },
    {
      "city": "Boerne",
      "name": "Apple Tree Lounge",
      "longitude": -98.68985,
      "latitude": 29.83651,
      "state": "Texas",
      "address": "518 E. Blanco",
      "zip": 78006,
      "id": 27
    },
    {
      "latitude": 29.486839,
      "state": "Texas",
      "zip": 78201,
      "address": "1929 La Manda",
      "id": 28,
      "longitude": -98.527021,
      "city": "San Antonio",
      "name": "Aquariaum Disco"
    },
    {
      "latitude": 29.482984,
      "state": "Texas",
      "zip": 78201,
      "address": "1603 N. Colorado",
      "id": 29,
      "city": "San Antonio",
      "name": "Aragon Blue Room",
      "longitude": -98.534244
    },
    {
      "city": "San Antonio",
      "longitude": -98.45499,
      "name": "Arjon's International Club",
      "address": "8736 Tesoro Dr.",
      "zip": 78217,
      "id": 30,
      "latitude": 29.518939,
      "state": "Texas"
    },
    {
      "latitude": 29.421384,
      "state": "Texas",
      "address": "418 Villita St.",
      "zip": 78205,
      "id": 31,
      "city": "San Antonio",
      "name": "Arneson River Theatre",
      "longitude": -98.488901
    },
    {
      "longitude": -98.4658,
      "city": "San Antonio",
      "name": "Arthur's",
      "id": 32,
      "address": "4001 Broadway",
      "zip": 78209,
      "state": "Texas",
      "latitude": 29.463437
    },
    {
      "city": "San Antonio",
      "longitude": -98.482338,
      "name": "Artisan on Alamo Distillery",
      "id": 33,
      "zip": 78215,
      "address": "315 8th St.",
      "state": "Texas",
      "latitude": 29.432039
    },
    {
      "latitude": 29.429827,
      "state": "Texas",
      "zip": 78205,
      "address": "445 N. Main Ave.",
      "id": 34,
      "longitude": -98.49431,
      "city": "San Antonio",
      "name": "Artpace San Antonio"
    },
    {
      "city": "San Antonio",
      "longitude": -98.437492,
      "name": "AT&T Center",
      "id": 35,
      "address": "1 AT&T Center Parkway",
      "zip": 78219,
      "state": "Texas",
      "latitude": 29.426981
    },
    {
      "city": "San Antonio",
      "name": "Avalon Grill",
      "longitude": -98.495141,
      "state": "Texas",
      "latitude": 29.4246,
      "id": 36,
      "address": "509.5 East Commerce",
      "zip": 78205
    },
    {
      "city": "San Antonio",
      "name": "Aztec Theatre",
      "longitude": -98.491058,
      "id": 37,
      "address": "201 E. Commerce St. ",
      "zip": 78205,
      "state": "Texas",
      "latitude": 29.424683
    },
    {
      "latitude": 29.417134,
      "state": "Texas",
      "zip": 78205,
      "address": "709 S Alamo St.",
      "id": 38,
      "longitude": -98.488644,
      "city": "San Antonio",
      "name": "Azuca Nuevo Latino Restaurant & Bar"
    },
    {
      "city": "San Antonio",
      "name": "Backstage Live",
      "longitude": -98.477108,
      "id": 39,
      "address": "1305 E. Houston St.",
      "zip": 78205,
      "state": "Texas",
      "latitude": 29.425226
    },
    {
      "name": "Backyard on Broadway",
      "city": "San Antonio",
      "longitude": -98.475231,
      "id": 40,
      "zip": 78215,
      "address": "2415 Broadway",
      "state": "Texas",
      "latitude": 29.448812
    },
    {
      "city": "San Antonio",
      "name": "Badlands Saloon",
      "longitude": -98.48855,
      "state": "Texas",
      "latitude": 29.424314,
      "id": 41,
      "zip": 78205,
      "address": "522 Riverwalk"
    },
    {
      "latitude": 29.38715,
      "state": "Texas",
      "address": "3301 S. Gevers",
      "zip": 78210,
      "id": 42,
      "name": "Bamboo Room",
      "city": "San Antonio",
      "longitude": -98.45707
    },
    {
      "city": "San Antonio",
      "name": "Bar 414",
      "longitude": -98.491,
      "state": "Texas",
      "latitude": 29.426958,
      "id": 43,
      "zip": 78205,
      "address": "205 E Houston St."
    },
    {
      "state": "Texas",
      "latitude": 29.416719,
      "id": 44,
      "address": "723 S Alamo St",
      "zip": 78205,
      "name": "Bar America",
      "city": "San Antonio",
      "longitude": -98.488773
    },
    {
      "longitude": -98.483946,
      "city": "San Antonio",
      "name": "Bar Rojo at The Grand Hyatt Hotel",
      "latitude": 29.421639,
      "state": "Texas",
      "zip": 78205,
      "address": "600 E. Market St.",
      "id": 45
    },
    {
      "address": "2615 Mossrock",
      "zip": 78230,
      "id": 46,
      "latitude": 29.54797,
      "state": "Texas",
      "city": "San Antonio",
      "longitude": -98.577415,
      "name": "Barclay's Piano Bar"
    },
    {
      "state": "Texas",
      "latitude": 29.425241,
      "id": 47,
      "address": "111 W Crockett St #214",
      "zip": 78205,
      "city": "San Antonio",
      "name": "Barriba Cantina",
      "longitude": -98.489094
    },
    {
      "city": "San Antonio",
      "longitude": -98.491764,
      "name": "Beethoven Maennerchor Halle Und Garten",
      "zip": 78210,
      "address": "422 Pereida St",
      "id": 48,
      "latitude": 29.411714,
      "state": "Texas"
    },
    {
      "address": "802 N. Alamo St.",
      "zip": 78215,
      "id": 49,
      "latitude": 29.431832,
      "state": "Texas",
      "longitude": -98.481514,
      "city": "San Antonio",
      "name": "Bentley's"
    },
    {
      "name": "Beto's Comida Latina",
      "city": "San Antonio",
      "longitude": -98.465905,
      "latitude": 29.511278,
      "state": "Texas",
      "address": "8142 Broadway St",
      "zip": 78209,
      "id": 50
    },
    {
      "city": "San Antonio",
      "longitude": -98.487766,
      "name": "Bier Garten Riverwalk",
      "zip": 78205,
      "address": "126 Losoya Street",
      "id": 51,
      "latitude": 29.425609,
      "state": "Texas"
    },
    {
      "name": "Big Band Fun Club",
      "city": "San Antonio",
      "longitude": -98.559125,
      "latitude": 29.502351,
      "state": "Texas",
      "zip": 78230,
      "address": "9821 Colonnade",
      "id": 52
    },
    {
      "city": "San Antonio",
      "name": "Big Bob's Burgers",
      "longitude": -98.511348,
      "state": "Texas",
      "latitude": 29.46646,
      "id": 53,
      "address": "​447 W. Hildebrand Ave. ",
      "zip": 78212
    },
    {
      "zip": 78232,
      "address": "16620 San Pedro Ave #1",
      "id": 54,
      "latitude": 29.593178,
      "state": "Texas",
      "city": "San Antonio",
      "name": "Big Texas Ice House",
      "longitude": -98.470183
    },
    {
      "city": "San Antonio",
      "name": "Bihl Haus Arts",
      "longitude": -98.531612,
      "state": "Texas",
      "latitude": 29.469665,
      "id": 55,
      "address": "2803 Fredericksburg Rd",
      "zip": 78201
    },
    {
      "longitude": -98.477389,
      "city": "San Antonio",
      "name": "Billy Blues BBQ",
      "zip": 78215,
      "address": "330 East Grayson",
      "id": 56,
      "latitude": 29.443545,
      "state": "Texas"
    },
    {
      "state": "Texas",
      "latitude": 29.552775,
      "id": 57,
      "address": "1805 Pat Booker Road",
      "zip": 78148,
      "city": "San Antonio",
      "longitude": -98.308273,
      "name": "Billy D's Club"
    },
    {
      "longitude": -98.488567,
      "city": "San Antonio",
      "name": "Billy Marbles",
      "id": 58,
      "address": "409 East Commerce",
      "zip": 78205,
      "state": "Texas",
      "latitude": 29.424114
    },
    {
      "city": "San Antonio",
      "longitude": -98.449339,
      "name": "BJ's Night Club",
      "zip": 78203,
      "address": "2710 East Commerce",
      "id": 59,
      "latitude": 29.419216,
      "state": "Texas"
    },
    {
      "state": "Texas",
      "latitude": 29.367135,
      "id": 60,
      "zip": 78214,
      "address": "605 VFW Blvd",
      "city": "San Antonio",
      "longitude": -98.48027,
      "name": "Black Canteen"
    },
    {
      "state": "Texas",
      "latitude": 29.585041,
      "id": 61,
      "zip": 78247,
      "address": "3030 Thousand Oaks",
      "city": "San Antonio",
      "longitude": -98.451421,
      "name": "Black Clover Pub"
    },
    {
      "longitude": -98.486169,
      "city": "San Antonio",
      "name": "Black Orchid",
      "address": "2726 N St. Mary's",
      "zip": 78212,
      "id": 62,
      "latitude": 29.450903,
      "state": "Texas"
    },
    {
      "longitude": -98.508962,
      "city": "San Antonio",
      "name": "Blanco Ballroom",
      "id": 63,
      "zip": 78212,
      "address": "3719 Blanco Rd",
      "state": "Texas",
      "latitude": 29.481275
    },
    {
      "id": 64,
      "zip": 78209,
      "address": "902 NE Interstate 410 Loop",
      "state": "Texas",
      "latitude": 29.531482,
      "city": "San Antonio",
      "name": "Blind Tiger Comedy Club",
      "longitude": -98.427862
    },
    {
      "city": "Schertz",
      "name": "Bluebonnet Palace",
      "longitude": -98.297618,
      "state": "Texas",
      "latitude": 29.600872,
      "id": 65,
      "address": "17630 Lookout Rd",
      "zip": 78154
    },
    {
      "name": "Blue Note Club",
      "city": "San Antonio",
      "longitude": -98.49126,
      "latitude": 29.452192,
      "state": "Texas",
      "zip": 78212,
      "address": "2102 Blanco",
      "id": 66
    },
    {
      "latitude": 29.414071,
      "state": "Texas",
      "address": "2547 East Commerce",
      "zip": 78203,
      "id": 67,
      "name": "Blue Note Lounge",
      "city": "San Antonio",
      "longitude": -98.45481
    },
    {
      "zip": 78210,
      "address": "1414 S Alamo St",
      "id": 68,
      "latitude": 29.409663,
      "state": "Texas",
      "city": "San Antonio",
      "name": "Blue Star Brewing Co.",
      "longitude": -98.495346
    },
    {
      "id": 69,
      "address": "4011 Broadway",
      "zip": 78209,
      "state": "Texas",
      "latitude": 29.463749,
      "longitude": -98.465834,
      "city": "San Antonio",
      "name": "Boardwalk Bistro"
    },
    {
      "state": "Texas",
      "latitude": 29.542928,
      "id": 70,
      "address": "11341 West Avenue",
      "zip": 78216,
      "city": "San Antonio",
      "name": "Bogart's",
      "longitude": -98.512402
    },
    {
      "city": "San Antonio",
      "name": "Bohanan's Prime Steaks & Seafood",
      "longitude": -98.490525,
      "id": 71,
      "address": "219 E Houston St ",
      "zip": 78205,
      "state": "Texas",
      "latitude": 29.426677
    },
    {
      "zip": 78215,
      "address": "312 Pearl Pkwy., Bldg. 3 ",
      "id": 72,
      "latitude": 29.443165,
      "state": "Texas",
      "longitude": -98.480251,
      "city": "San Antonio",
      "name": "Boiler House Texas Grill & Wine Garden"
    },
    {
      "latitude": 29.402692,
      "state": "Texas",
      "address": "3506 N St Mary's St",
      "zip": 78212,
      "id": 73,
      "city": "San Antonio",
      "name": "Bombay Bicycle Club",
      "longitude": -98.485251
    },
    {
      "city": "San Antonio",
      "name": "Bond's 007 Rock Bar",
      "longitude": -98.493127,
      "latitude": 29.429727,
      "state": "Texas",
      "zip": 78205,
      "address": "450 Soledad St",
      "id": 74
    },
    {
      "state": "Texas",
      "latitude": 29.55961,
      "id": 75,
      "zip": 78212,
      "address": "828 San Pedro",
      "city": "San Antonio",
      "longitude": -98.479944,
      "name": "Bone Club"
    },
    {
      "state": "Texas",
      "latitude": 29.450211,
      "id": 76,
      "zip": 78215,
      "address": "306 Austin Street",
      "longitude": -98.482663,
      "city": "San Antonio",
      "name": "Bonesshakers Tap House and Pizzeria"
    },
    {
      "longitude": -98.484451,
      "city": "San Antonio",
      "name": "Bonham Exchange",
      "address": "411 Bonham",
      "zip": 78205,
      "id": 77,
      "latitude": 29.426719,
      "state": "Texas"
    },
    {
      "latitude": 29.511125,
      "state": "Texas",
      "zip": 78229,
      "address": "5118 Fredericksburg",
      "id": 78,
      "city": "San Antonio",
      "longitude": -98.5813429,
      "name": "Bonnie Jean's"
    },
    {
      "name": "Boozehounds",
      "city": "San Antonio",
      "longitude": -98.411052,
      "latitude": 29.517655,
      "state": "Texas",
      "address": "8531 Perrin Beitel Rd",
      "zip": 78217,
      "id": 79
    },
    {
      "id": 80,
      "zip": 78003,
      "address": "Hwy 173",
      "state": "Texas",
      "latitude": 29.727007,
      "city": "Bandera",
      "longitude": -99.072459,
      "name": "Bo's Rodeo"
    },
    {
      "longitude": -98.47996,
      "city": "San Antonio",
      "name": "Botika Peruvian-Asian Restaurant",
      "id": 81,
      "address": "The Pearl, 303 Pearl Pkwy #111",
      "zip": 78215,
      "state": "Texas",
      "latitude": 29.442498
    },
    {
      "zip": 78201,
      "address": "1603 N Colorado St.",
      "id": 82,
      "latitude": 29.442701,
      "state": "Texas",
      "city": "San Antonio",
      "name": "Bottom Bracket Social Club",
      "longitude": -98.509292
    },
    {
      "city": "San Antonio",
      "name": "Bottom Line",
      "longitude": -98.47863,
      "zip": 78205,
      "address": "1164 East Commerce",
      "id": 83,
      "latitude": 29.42149,
      "state": "Texas"
    },
    {
      "latitude": 29.424058,
      "state": "Texas",
      "address": "421 E. Commerce St.",
      "zip": 78205,
      "id": 84,
      "name": "Boudro’s Texas Bistro",
      "city": "San Antonio",
      "longitude": -98.488337
    },
    {
      "longitude": -98.484859,
      "city": "San Antonio",
      "name": "Bowlero",
      "latitude": 29.562625,
      "state": "Texas",
      "address": "13307 San Pedro Ave.",
      "zip": 78216,
      "id": 85
    },
    {
      "city": "San Antonio",
      "longitude": -98.5813429,
      "name": "Brandi's Piano Bar",
      "address": "5152 Fredericksburg",
      "zip": 78229,
      "id": 86,
      "latitude": 29.511125,
      "state": "Texas"
    },
    {
      "city": "San Antonio",
      "longitude": -98.486915,
      "name": "Brass Monkey",
      "state": "Texas",
      "latitude": 29.450244,
      "id": 87,
      "address": "2702 N St Mary's St",
      "zip": 78212
    },
    {
      "latitude": 29.616585,
      "state": "Texas",
      "zip": 78254,
      "address": "9721 Braun Rd ",
      "id": 88,
      "city": "San Antonio",
      "longitude": -98.655157,
      "name": "Braun Hall"
    },
    {
      "city": "San Antonio",
      "longitude": -98.516711,
      "name": "Brazakka's Reef",
      "latitude": 29.551812,
      "state": "Texas",
      "zip": 78216,
      "address": "5223 Blanco Road",
      "id": 89
    },
    {
      "longitude": -98.699274,
      "city": "San Antonio",
      "name": "Brews Brothers",
      "zip": 78254,
      "address": "7403 Leslie Rd ",
      "id": 90,
      "latitude": 29.508356,
      "state": "Texas"
    },
    {
      "longitude": -98.495616,
      "city": "San Antonio",
      "name": "Brick at Blue Star Arts Complex",
      "latitude": 29.409467,
      "state": "Texas",
      "zip": 78204,
      "address": "108 Blue Star ",
      "id": 91
    },
    {
      "address": "210 W. Market St. ",
      "zip": 78205,
      "id": 92,
      "latitude": 29.422921,
      "state": "Texas",
      "city": "San Antonio",
      "longitude": -98.489009,
      "name": "Briscoe Western Art Museum"
    },
    {
      "address": "258 Central  Park Mall",
      "zip": 78216,
      "id": 93,
      "latitude": 29.5184561,
      "state": "Texas",
      "city": "San Antonio",
      "name": "Broad Street",
      "longitude": -98.5017004
    },
    {
      "id": 94,
      "address": "1826 N New Braunfels",
      "zip": 78208,
      "state": "Texas",
      "latitude": 29.398065,
      "city": "San Antonio",
      "longitude": -98.46096,
      "name": "Broadway Turk's"
    },
    {
      "longitude": -98.482663,
      "city": "San Antonio",
      "name": "Brooklyn Street Bar and Grill",
      "address": "516 Brooklyn Street",
      "zip": 78215,
      "id": 95,
      "latitude": 29.450211,
      "state": "Texas"
    },
    {
      "longitude": -98.4339,
      "city": "San Antonio",
      "name": "Brooks Pub",
      "address": "3354 Lasses Blvd",
      "zip": 78223,
      "id": 96,
      "latitude": 29.355304,
      "state": "Texas"
    },
    {
      "city": "San Antonio",
      "longitude": -98.51699,
      "name": "Brooster's Backyard IceHouse",
      "latitude": 29.31194,
      "state": "Texas",
      "zip": 78214,
      "address": "815 Pleasanton Rd",
      "id": 97
    },
    {
      "name": "Buckley's Jazz Bar",
      "city": "San Antonio",
      "longitude": -98.597357,
      "state": "Texas",
      "latitude": 29.517233,
      "id": 98,
      "zip": 78240,
      "address": "5500 Babcock"
    },
    {
      "state": "Texas",
      "latitude": 29.450667,
      "id": 99,
      "zip": 78212,
      "address": "2714 N. St. Mary's",
      "city": "San Antonio",
      "name": "Bucko's Boardroom",
      "longitude": -98.48675
    },
    {
      "city": "San Antonio",
      "longitude": -98.494226,
      "name": "Buddy's Ize House",
      "id": 100,
      "zip": 78212,
      "address": "1920 N. Main Avenue",
      "state": "Texas",
      "latitude": 29.447843
    },
    {
      "city": "San Antonio",
      "longitude": -98.457242,
      "name": "Budro's",
      "latitude": 29.524766,
      "state": "Texas",
      "address": "4211 Sungate Drive",
      "zip": 78217,
      "id": 101
    },
    {
      "longitude": -98.481527,
      "city": "San Antonio",
      "name": "Bull Moose",
      "latitude": 29.562078,
      "state": "Texas",
      "zip": 78216,
      "address": "6501 N Blanco Rd",
      "id": 102
    },
    {
      "state": "Texas",
      "latitude": 29.51988,
      "id": 103,
      "address": "2379 NE Loop 410",
      "zip": 78217,
      "city": "San Antonio",
      "longitude": -98.41911,
      "name": "Burgundy Woods"
    },
    {
      "name": "Burleson Yard Beer Garden",
      "city": "San Antonio",
      "longitude": -98.47839,
      "id": 104,
      "address": "430 Austin St",
      "zip": 78215,
      "state": "Texas",
      "latitude": 29.432553
    },
    {
      "name": "Burnhouse Cigar & Martini Lounge",
      "city": "San Antonio",
      "longitude": -98.574274,
      "address": "4553 North Loop 1604 W #122",
      "zip": 78249,
      "id": 105,
      "latitude": 29.596033,
      "state": "Texas"
    },
    {
      "city": "San Antonio",
      "name": "Burro Land",
      "longitude": -98.534244,
      "state": "Texas",
      "latitude": 29.482984,
      "id": 106,
      "address": "800 Cincinatti",
      "zip": 78201
    },
    {
      "longitude": -98.488339,
      "city": "San Antonio",
      "name": "Bwana Dik",
      "latitude": 29.424078,
      "state": "Texas",
      "zip": 78205,
      "address": "421 East Commerce",
      "id": 107
    },
    {
      "name": "Cabaret",
      "city": "Bandera",
      "longitude": -99.072459,
      "latitude": 29.727007,
      "state": "Texas",
      "zip": 78003,
      "address": "801 N. Main Street",
      "id": 108
    },
    {
      "name": "Cactus Beer Garden",
      "city": "San Antonio",
      "longitude": -98.49126,
      "id": 109,
      "zip": 78212,
      "address": "2913 N. St. Mary's",
      "state": "Texas",
      "latitude": 29.452192
    },
    {
      "zip": 78101,
      "address": "368 County Rd 325 b",
      "id": 110,
      "latitude": 29.289989,
      "state": "Texas",
      "city": "Adkins",
      "name": "Cactusland Brewery",
      "longitude": -98.254405
    },
    {
      "zip": 78204,
      "address": "212 South Flores",
      "id": 111,
      "latitude": 29.422308,
      "state": "Texas",
      "longitude": -98.494967,
      "city": "San Antonio",
      "name": "Cadillac Bar"
    },
    {
      "state": "Texas",
      "latitude": 29.450667,
      "id": 112,
      "zip": 78212,
      "address": "2714 N. St. Mary's",
      "name": "Cafe Americain",
      "city": "San Antonio",
      "longitude": -98.48675
    },
    {
      "latitude": 29.51401,
      "state": "Texas",
      "zip": 78216,
      "address": "103 West Rampart",
      "id": 113,
      "longitude": -98.49428,
      "city": "San Antonio",
      "name": "Cafe Shalom International Coffee House"
    },
    {
      "longitude": -98.630222,
      "city": "San Antonio",
      "name": "Caliente Harley-Davidson",
      "id": 114,
      "zip": 78245,
      "address": "7230 NW Loop 410",
      "state": "Texas",
      "latitude": 29.450938
    },
    {
      "city": "San Antonio",
      "longitude": -98.479326,
      "name": "Cameo Theater",
      "id": 115,
      "zip": 78205,
      "address": "1123 East Commerce",
      "state": "Texas",
      "latitude": 29.422148
    },
    {
      "longitude": -98.484648,
      "city": "San Antonio",
      "name": "Candlelight Coffeehouse & Wine Bar",
      "address": "3011 N Saint Marys St",
      "zip": 78212,
      "id": 116,
      "latitude": 29.452984,
      "state": "Texas"
    },
    {
      "longitude": -98.487846,
      "city": "San Antonio",
      "name": "Cantina del Rio",
      "latitude": 29.422428,
      "state": "Texas",
      "zip": 78205,
      "address": "200 S Alamo St",
      "id": 117
    },
    {
      "state": "Texas",
      "latitude": null,
      "id": 118,
      "address": "1534 Bandera Road",
      "zip": 78228,
      "city": "San Antonio",
      "name": "Cardi's",
      "longitude": null
    },
    {
      "id": 119,
      "address": "11407 West Ave ",
      "zip": 78213,
      "state": "Texas",
      "latitude": null,
      "name": "Carlsbad Tavern",
      "city": "San Antonio",
      "longitude": null
    },
    {
      "zip": 78205,
      "address": "320 N Flores St",
      "id": 120,
      "latitude": 29.427963,
      "state": "Texas",
      "name": "Carmen's de la Calle",
      "city": "San Antonio",
      "longitude": -98.494182
    },
    {
      "city": "San Antonio",
      "longitude": -98.458157,
      "name": "Carousel Court Shopping Center",
      "id": 121,
      "zip": 78209,
      "address": "1836 Nacogdoches Rd, ",
      "state": "Texas",
      "latitude": 29.505124
    },
    {
      "city": "San Antonio",
      "longitude": -98.472462,
      "name": "The Carver Community Cultural Center – The Jo Long Theatre for Performing Arts",
      "id": 122,
      "address": "226 N Hackberry",
      "zip": 78202,
      "state": "Texas",
      "latitude": 29.421692
    },
    {
      "city": "San Antonio",
      "name": "Casablanca",
      "longitude": -98.534244,
      "state": "Texas",
      "latitude": 29.482984,
      "id": 123,
      "zip": 78201,
      "address": "1929 La Manda St"
    },
    {
      "name": "Casbeers",
      "city": "San Antonio",
      "longitude": -98.51213,
      "address": "1719 Blanco Road",
      "zip": 78212,
      "id": 124,
      "latitude": 29.48627,
      "state": "Texas"
    },
    {
      "longitude": -98.492949,
      "city": "San Antonio",
      "name": "Casbeers at the Church",
      "latitude": 29.411452,
      "state": "Texas",
      "address": "1150 South Alamo",
      "zip": 78205,
      "id": 125
    },
    {
      "address": "Riverwalk",
      "zip": 78205,
      "id": 126,
      "latitude": 29.4242555,
      "state": "Texas",
      "longitude": -98.4884669728261,
      "city": "San Antonio",
      "name": "Casey's Saloon and Dance"
    },
    {
      "longitude": -98.524926042683,
      "city": "San Antonio",
      "name": "Casino Club",
      "zip": 78201,
      "address": "N Zarzamora St & Culebra Rd",
      "id": 127,
      "latitude": 29.4453977354397,
      "state": "Texas"
    },
    {
      "id": 128,
      "address": "2195 NW Military Hwy",
      "zip": 78213,
      "state": "Texas",
      "latitude": 29.532999,
      "longitude": -98.521949,
      "city": "San Antonio",
      "name": "Castle Hills Market Shopping Center (Two locations - (2211 NW Military Highway)"
    },
    {
      "state": "Texas",
      "latitude": null,
      "id": 129,
      "zip": 78207,
      "address": "904 West Houston",
      "city": "San Antonio",
      "longitude": null,
      "name": "Cattlemen Square Tavern"
    },
    {
      "name": "Chance Are Lounge",
      "city": "San Antonio",
      "longitude": -98.576454,
      "zip": 78237,
      "address": "743 Historic Old Hwy 90",
      "id": 130,
      "latitude": 29.425384,
      "state": "Texas"
    },
    {
      "city": "San Antonio",
      "longitude": -98.4162499,
      "name": "Chandelier Club",
      "state": "Texas",
      "latitude": 29.501472,
      "id": 131,
      "address": "3418 Eisenhauer",
      "zip": 78218
    },
    {
      "city": "San Antonio",
      "longitude": -98.461145,
      "name": "Charlie Brown's Neighborhood Bar & Grill",
      "zip": 78247,
      "address": "11888 Starcrest Dr #101",
      "id": 132,
      "latitude": 29.548179,
      "state": "Texas"
    },
    {
      "latitude": 29.426265,
      "state": "Texas",
      "address": "226 N. St. Mary's St.",
      "zip": 78205,
      "id": 133,
      "city": "San Antonio",
      "longitude": -98.490586,
      "name": "Charline McCombs Empire Theatre"
    },
    {
      "id": 134,
      "zip": 78233,
      "address": "13550 O'Connor Road",
      "state": "Texas",
      "latitude": 29.54863,
      "city": "San Antonio",
      "longitude": -98.37916,
      "name": "Chaser's"
    },
    {
      "longitude": -98.554005,
      "city": "San Antonio",
      "name": "Cheers",
      "state": "Texas",
      "latitude": 29.495579,
      "id": 135,
      "zip": 78213,
      "address": "3625 West Avenue"
    },
    {
      "name": "Chelsea Street",
      "city": null,
      "longitude": -98.605345,
      "id": 136,
      "address": "2310 SW Military",
      "zip": 78224,
      "state": "Texas",
      "latitude": 29.340932
    },
    {
      "city": "San Antonio",
      "longitude": -98.475943,
      "name": "Cherrity Bar",
      "latitude": 29.4183,
      "state": "Texas",
      "address": "302 Montana Street",
      "zip": 78203,
      "id": 137
    },
    {
      "latitude": 29.601428,
      "state": "Texas",
      "address": "8640 East Evans Road",
      "zip": 78266,
      "id": 138,
      "city": "San Antonio",
      "longitude": -98.316916,
      "name": "Cibolo Creek Country Club"
    },
    {
      "longitude": -98.709097,
      "city": "Boerne",
      "name": "Cibolo Nature Center",
      "latitude": 29.781648,
      "state": "Texas",
      "zip": 78006,
      "address": "140 City Park Road",
      "id": 139
    },
    {
      "state": "Texas",
      "latitude": 29.362979,
      "id": 140,
      "address": "3603 S WW White Road",
      "zip": 78222,
      "city": "San Antonio",
      "name": "Circle B&R",
      "longitude": -98.404747
    },
    {
      "latitude": 29.437559,
      "state": "Texas",
      "address": "17200 Bandera Road",
      "zip": 78203,
      "id": 141,
      "longitude": -98.461836,
      "city": "San Antonio",
      "name": "City Limits Cantina"
    },
    {
      "latitude": 29.36069,
      "state": "Texas",
      "address": "6727 S Zarzamora",
      "zip": 78224,
      "id": 142,
      "city": "San Antonio",
      "name": "Clay's Ice House",
      "longitude": -98.53443
    },
    {
      "longitude": -98.525017,
      "city": "San Antonio",
      "name": "Clem's Old Fashioned Barbeque",
      "state": "Texas",
      "latitude": 29.444505,
      "id": 143,
      "zip": 78201,
      "address": "1615 N Zarzamora"
    },
    {
      "city": "San Antonio",
      "longitude": -98.613368,
      "name": "Clown Alley",
      "latitude": 29.376452,
      "state": "Texas",
      "zip": 78242,
      "address": "5520 SW Military",
      "id": 144
    },
    {
      "latitude": 29.33475,
      "state": "Texas",
      "address": "8902 South Presa",
      "zip": 78223,
      "id": 145,
      "city": "San Antonio",
      "longitude": -98.451473,
      "name": "Club 181"
    },
    {
      "id": 146,
      "zip": 78205,
      "address": "434 S Alamo St ",
      "state": "Texas",
      "latitude": 29.419552,
      "city": "San Antonio",
      "name": "Club Abrazo",
      "longitude": -98.487966
    },
    {
      "name": "Club Country",
      "city": "San Antonio",
      "longitude": -98.422985,
      "state": "Texas",
      "latitude": 29.539699,
      "id": 147,
      "zip": 78217,
      "address": "10929 Nacogdoches"
    },
    {
      "address": "1918 Wyoming Street",
      "zip": 78203,
      "id": 148,
      "latitude": 29.41774,
      "state": "Texas",
      "city": "San Antonio",
      "longitude": -98.46013,
      "name": "Club Eldorado"
    },
    {
      "name": "Club Miami",
      "city": "San Antonio",
      "longitude": -98.538227,
      "id": 149,
      "zip": 78201,
      "address": "3534 Fredricksburg",
      "state": "Texas",
      "latitude": 29.477421
    },
    {
      "longitude": -98.488405,
      "city": "San Antonio",
      "name": "Club Movida",
      "address": "306 E Mitchell St",
      "zip": 78210,
      "id": 150,
      "latitude": 29.391628,
      "state": "Texas"
    },
    {
      "zip": 78212,
      "address": "1720 North Main",
      "id": 151,
      "latitude": 29.445884,
      "state": "Texas",
      "name": "Club Oasis",
      "city": "San Antonio",
      "longitude": -98.494218
    },
    {
      "name": "Club Reflex",
      "city": "San Antonio",
      "longitude": -98.569102,
      "id": 152,
      "address": "3740 NW 410",
      "zip": 78229,
      "state": "Texas",
      "latitude": 29.523837
    },
    {
      "name": "Club Ricardo",
      "city": "San Antonio",
      "longitude": -98.487694,
      "latitude": 29.424339,
      "state": "Texas",
      "zip": 78205,
      "address": "514 River Walk",
      "id": 153
    },
    {
      "longitude": -98.482663,
      "city": "San Antonio",
      "name": "Club Ron Rico",
      "id": 154,
      "zip": 78215,
      "address": "2012 Broadway",
      "state": "Texas",
      "latitude": 29.450211
    },
    {
      "id": 155,
      "zip": 78205,
      "address": "228 Losoya St",
      "state": "Texas",
      "latitude": 29.424623,
      "city": "San Antonio",
      "longitude": -98.487607,
      "name": "Club Sirius"
    },
    {
      "city": "San Antonio",
      "name": "Club Vortex",
      "longitude": -98.494218,
      "state": "Texas",
      "latitude": 29.445884,
      "id": 156,
      "address": "1720 N. Main Avenue",
      "zip": 78212
    },
    {
      "longitude": -98.482302,
      "city": "San Antonio",
      "name": "Co Lab",
      "id": 157,
      "zip": 78215,
      "address": "723 N Alamo St",
      "state": "Texas",
      "latitude": 29.43188
    },
    {
      "city": "San Antonio",
      "longitude": null,
      "name": "Cobalt Club",
      "latitude": null,
      "state": "Texas",
      "address": "2022 McCullough",
      "zip": 78212,
      "id": 158
    },
    {
      "zip": 78212,
      "address": "2725 N. St. Mary's",
      "id": 159,
      "latitude": null,
      "state": "Texas",
      "city": "San Antonio",
      "name": "Coco Beach",
      "longitude": null
    },
    {
      "city": "San Antonio",
      "name": "Comanche Ice House",
      "longitude": null,
      "id": 160,
      "address": "2603 Rigsby",
      "zip": 78222,
      "state": "Texas",
      "latitude": null
    },
    {
      "city": "San Antonio",
      "longitude": -98.448655,
      "name": "Come On Inn",
      "id": 161,
      "zip": 78223,
      "address": "1735 Fair Ave",
      "state": "Texas",
      "latitude": 29.384287
    },
    {
      "name": "Conglomeration",
      "city": "San Antonio",
      "longitude": -98.584299,
      "zip": 78229,
      "address": "4923 NW 410",
      "id": 162,
      "latitude": 29.490035,
      "state": "Texas"
    },
    {
      "zip": 78212,
      "address": "2022 McCullough Ave",
      "id": 163,
      "latitude": 29.448875,
      "state": "Texas",
      "city": "San Antonio",
      "longitude": -98.491605,
      "name": "Connor's Night Club"
    },
    {
      "state": "Texas",
      "latitude": 29.720585,
      "id": 164,
      "zip": 78015,
      "address": "9091 Fair Oaks Pkwy",
      "name": "Conroy's Irish Pub",
      "city": "Boerne",
      "longitude": -98.664812
    },
    {
      "latitude": 29.485378,
      "state": "Texas",
      "address": "6390 Fairdale Dr",
      "zip": 78218,
      "id": 165,
      "longitude": -98.405075,
      "city": "San Antonio",
      "name": "Continental Cafe"
    },
    {
      "city": "New Braunfels",
      "name": "Conway's",
      "longitude": -98.119612,
      "zip": 78130,
      "address": "262 W. Jahn Street",
      "id": 166,
      "latitude": 29.697039,
      "state": "Texas"
    },
    {
      "city": "San Antonio",
      "longitude": null,
      "name": "Cooter Brown's",
      "id": 167,
      "address": "7022 Seco Creek",
      "zip": 78256,
      "state": "Texas",
      "latitude": null
    },
    {
      "city": "Helotes",
      "longitude": -98.670186,
      "name": "Cooter Browns Saloon",
      "latitude": 29.555345,
      "state": "Texas",
      "address": "11881 Bandera Rd",
      "zip": 78023,
      "id": 168
    },
    {
      "state": "Texas",
      "latitude": 29.513741,
      "id": 169,
      "address": "8318 Jones Maltsberger Rd",
      "zip": 78216,
      "longitude": -98.480649,
      "city": "San Antonio",
      "name": "Cootey's Tavern"
    },
    {
      "longitude": -98.410805,
      "city": "San Antonio",
      "name": "Corner Pocket Bar",
      "latitude": 29.508199,
      "state": "Texas",
      "zip": 78218,
      "address": "2363 Austin Hwy",
      "id": 170
    },
    {
      "city": null,
      "name": "Cottonwood Country Club",
      "longitude": -98.620397,
      "id": 171,
      "address": "1225 West Commerce",
      "zip": 78207,
      "state": "Texas",
      "latitude": 29.436128
    },
    {
      "name": "Country Cabaret",
      "city": "Seguin",
      "longitude": -97.974159,
      "latitude": 29.536249,
      "state": "Texas",
      "address": "839 FM 467",
      "zip": 78155,
      "id": 172
    },
    {
      "latitude": null,
      "state": "Texas",
      "zip": 78216,
      "address": "622 NW Loop 410",
      "id": 173,
      "longitude": null,
      "city": "San Antonio",
      "name": "Country Down Under"
    },
    {
      "city": "San Antonio",
      "name": "Country Gold",
      "longitude": -98.64514,
      "zip": 78252,
      "address": "7405 Old Pearsall Road",
      "id": 174,
      "latitude": 29.323885,
      "state": "Texas"
    },
    {
      "id": 175,
      "zip": 78218,
      "address": "8024 Cross Creek",
      "state": "Texas",
      "latitude": null,
      "city": "San Antonio",
      "name": "Country on the Rocks",
      "longitude": null
    },
    {
      "city": "San Antonio",
      "name": "Country Road Ballroom",
      "longitude": -98.47054,
      "id": 176,
      "zip": 78221,
      "address": "15624 S US Highway 281",
      "state": "Texas",
      "latitude": 29.26674
    },
    {
      "city": "San Antonio",
      "longitude": -98.489094,
      "name": "County Line - Downtown",
      "state": "Texas",
      "latitude": 29.425241,
      "id": 177,
      "address": "111 W Crockett St #104",
      "zip": 78205
    },
    {
      "city": "San Antonio",
      "name": "County Line- I 10",
      "longitude": -98.567315,
      "latitude": 29.537484,
      "state": "Texas",
      "address": "10101 Interstate 10 Frontage Rd.",
      "zip": 78230,
      "id": 178
    },
    {
      "name": "Courtyard",
      "city": null,
      "longitude": -98.523695,
      "id": 179,
      "zip": 78213,
      "address": "11403 West Avenue",
      "state": "Texas",
      "latitude": 29.510289
    },
    {
      "longitude": -98.398168,
      "city": "San Antonio",
      "name": "Cowboys Dance Hall",
      "id": 180,
      "zip": 78218,
      "address": "3030 NE Interstate 410 Loop",
      "state": "Texas",
      "latitude": 29.517595
    },
    {
      "state": "Texas",
      "latitude": 29.424173,
      "id": 181,
      "zip": 78205,
      "address": "409 E Commerce St",
      "city": "San Antonio",
      "name": "Coyote Ugly Saloon",
      "longitude": -98.488553
    },
    {
      "city": "San Antonio",
      "name": "Coyote's",
      "longitude": -98.641084,
      "id": 182,
      "zip": 78251,
      "address": "8759 Grissom Road",
      "state": "Texas",
      "latitude": 29.481578
    },
    {
      "id": 183,
      "zip": 78201,
      "address": "3600 Fredericksburg Road",
      "state": "Texas",
      "latitude": 29.357093,
      "city": "San Antonio",
      "longitude": -98.532753,
      "name": "Crazy Darryl's"
    },
    {
      "state": "Texas",
      "latitude": 29.43519,
      "id": 184,
      "zip": 78219,
      "address": "126 Gembler Road",
      "longitude": -98.43303,
      "city": "San Antonio",
      "name": "Crazy J's Sports Bar"
    },
    {
      "latitude": 29.441614,
      "state": "Texas",
      "address": "1300 N Main Ave,",
      "zip": 78212,
      "id": 185,
      "city": "San Antonio",
      "longitude": -98.494756,
      "name": "Crockett Park"
    },
    {
      "state": "Texas",
      "latitude": 29.506214,
      "id": 186,
      "zip": 78209,
      "address": "3920 Harry Wurzbach Rd",
      "city": "San Antonio",
      "name": "Crumpets Restaurant & Bakery",
      "longitude": -98.434103
    },
    {
      "longitude": -98.531304,
      "city": "San Antonio",
      "name": "Crystal Sea Drama Co Inc",
      "latitude": 29.517141,
      "state": "Texas",
      "zip": 78230,
      "address": "8414 Speedway Dr",
      "id": 187
    },
    {
      "name": "Cuatro Aces",
      "city": "San Antonio",
      "longitude": -98.504037,
      "id": 188,
      "zip": 78214,
      "address": "1110 Pleasanton Rd",
      "state": "Texas",
      "latitude": 29.373085
    },
    {
      "city": "San Antonio",
      "longitude": -98.479965,
      "name": "Cured at Pearl",
      "latitude": 29.441938,
      "state": "Texas",
      "address": "306 Pearl Pkwy #101",
      "zip": 78215,
      "id": 189
    },
    {
      "zip": 78229,
      "address": "8401 Datapoint",
      "id": 190,
      "latitude": 29.517585,
      "state": "Texas",
      "city": "San Antonio",
      "longitude": -98.569908,
      "name": "Cyrano's"
    },
    {
      "address": "2611 Broadway",
      "zip": 78215,
      "id": 191,
      "latitude": 29.450211,
      "state": "Texas",
      "city": "San Antonio",
      "name": "Da Silva's",
      "longitude": -98.482663
    },
    {
      "city": "San Antonio",
      "name": "Dad's",
      "longitude": -98.535767,
      "state": "Texas",
      "latitude": 29.513465,
      "id": 192,
      "address": "2615 Mossrock",
      "zip": 78230
    },
    {
      "state": "Texas",
      "latitude": 29.513465,
      "id": 193,
      "zip": 78230,
      "address": "2615 Mossrock",
      "city": "San Antonio",
      "name": "Dad's Karaoke",
      "longitude": -98.535767
    },
    {
      "longitude": -98.460775,
      "city": "San Antonio",
      "name": "Daiquiri Lounge",
      "state": "Texas",
      "latitude": 29.42758,
      "id": 194,
      "address": "630 N. New Braunfels Ave.",
      "zip": 78202
    },
    {
      "latitude": null,
      "state": "Texas",
      "zip": 78215,
      "address": "427 East Josephine",
      "id": 195,
      "city": "San Antonio",
      "longitude": null,
      "name": "Danceland"
    },
    {
      "city": "San Antonio",
      "longitude": -98.417179,
      "name": "D'Angelo's",
      "id": 196,
      "address": "3921 Naco-Perrin",
      "zip": 78217,
      "state": "Texas",
      "latitude": 29.543908
    },
    {
      "latitude": 29.43321,
      "state": "Texas",
      "address": "516 Brooklyn Street",
      "zip": 78215,
      "id": 197,
      "longitude": -98.484589,
      "city": "San Antonio",
      "name": "Daniel's Brooklyn Street"
    },
    {
      "id": 198,
      "zip": 78201,
      "address": "1815 Fredericksburg Rd",
      "state": "Texas",
      "latitude": 29.461489,
      "city": "San Antonio",
      "longitude": -98.523325,
      "name": "Deco Pizzeria"
    },
    {
      "zip": 78154,
      "address": "4810 FM 1518",
      "id": 199,
      "latitude": 29.574985,
      "state": "Texas",
      "city": "Schertz",
      "name": "Deer Crossing Saloon",
      "longitude": -98.302398
    },
    {
      "address": "2335 NW Military Hwy",
      "zip": 78231,
      "id": 200,
      "latitude": 29.5543855,
      "state": "Texas",
      "longitude": -98.5363425,
      "city": "San Antonio",
      "name": "Denim and Diamonds"
    },
    {
      "state": "Texas",
      "latitude": 29.588908,
      "id": 201,
      "zip": 78249,
      "address": "6851 North Loop 1604 W #101",
      "city": "San Antonio",
      "name": "Deol Bar",
      "longitude": -98.624418
    },
    {
      "id": 202,
      "address": "6844 Ingram Road",
      "zip": 78238,
      "state": "Texas",
      "latitude": null,
      "city": "San Antonio",
      "longitude": null,
      "name": "Desperado"
    },
    {
      "name": "Dick's Last Resort",
      "city": "San Antonio",
      "longitude": -98.489576,
      "zip": 78205,
      "address": "406 Navarro St,",
      "id": 203,
      "latitude": 29.425401,
      "state": "Texas"
    },
    {
      "longitude": -98.555599,
      "city": "San Antonio",
      "name": "Doc Holliday's",
      "state": "Texas",
      "latitude": 29.492177,
      "id": 204,
      "zip": 78213,
      "address": "3740 NW Loop 410"
    },
    {
      "state": "Texas",
      "latitude": 29.774215,
      "id": 205,
      "address": "1481 S Main St",
      "zip": 78006,
      "name": "Dog and Pony Grill",
      "city": "Boerne",
      "longitude": -98.721511
    },
    {
      "address": "1 Dominion Dr",
      "zip": 78257,
      "id": 206,
      "latitude": 29.650268,
      "state": "Texas",
      "longitude": -98.620379,
      "city": "San Antonio",
      "name": "Dominion Country Club"
    },
    {
      "id": 207,
      "address": "2121 N. St. Mary's",
      "zip": 78212,
      "state": "Texas",
      "latitude": 29.44553,
      "city": "San Antonio",
      "longitude": -98.486505,
      "name": "Dos Guys"
    },
    {
      "zip": 78205,
      "address": "300 Alamo Plaza",
      "id": 208,
      "latitude": 29.425165,
      "state": "Texas",
      "city": "San Antonio",
      "longitude": -98.48702,
      "name": "Downtown San Antonio (Alamo Address inputted)"
    },
    {
      "state": "Texas",
      "latitude": 29.45554,
      "id": 209,
      "address": "3306 N St Mary's St",
      "zip": 78212,
      "city": "San Antonio",
      "longitude": -98.480491,
      "name": "Doza's"
    },
    {
      "zip": 78258,
      "address": "700 E Sonterra Blvd",
      "id": 210,
      "latitude": 29.61413,
      "state": "Texas",
      "city": "San Antonio",
      "longitude": -98.484456,
      "name": "Draft Station at Sonterra"
    },
    {
      "city": "San Antonio",
      "longitude": -98.489825,
      "name": "Drink Texas Bar",
      "state": "Texas",
      "latitude": 29.423624,
      "id": 211,
      "zip": 78205,
      "address": "200 Navarro St"
    },
    {
      "city": "San Antonio",
      "name": "Drink Texas Stone Oak",
      "longitude": -98.490848,
      "state": "Texas",
      "latitude": 29.642787,
      "id": 212,
      "address": "19903 Stone Oak Pkwy #202",
      "zip": 78258
    },
    {
      "latitude": 29.520665,
      "state": "Texas",
      "address": "96 NE Loop 410",
      "zip": 78216,
      "id": 213,
      "city": "San Antonio",
      "longitude": -98.482265,
      "name": "Durdy Annie's (Americana Inn)"
    },
    {
      "city": "San Antonio",
      "name": "Durty Nelly's Irish Pub",
      "longitude": -98.487846,
      "id": 214,
      "zip": 78205,
      "address": "200 S Alamo St",
      "state": "Texas",
      "latitude": 29.422428
    },
    {
      "longitude": -98.495141,
      "city": "San Antonio",
      "name": "Eagle's Hall",
      "zip": 78205,
      "address": "211 North Alamo",
      "id": 215,
      "latitude": 29.4246,
      "state": "Texas"
    },
    {
      "zip": 78227,
      "address": "310 Valley Hi Drive",
      "id": 216,
      "latitude": 29.380124,
      "state": "Texas",
      "city": "San Antonio",
      "longitude": -98.639935,
      "name": "Earl of Country"
    },
    {
      "longitude": -98.617408,
      "city": "San Antonio",
      "name": "Eastwood Country Club",
      "latitude": 29.655529,
      "state": "Texas",
      "zip": 78257,
      "address": "1 Dominion Dr",
      "id": 217
    },
    {
      "name": "Edge of Town",
      "city": "San Antonio",
      "longitude": -98.665781,
      "zip": 78251,
      "address": "Culebra and Ingram",
      "id": 218,
      "latitude": 29.457955,
      "state": "Texas"
    },
    {
      "city": "San Antonio",
      "name": "Edwards Ridge Distillery",
      "longitude": -98.577258,
      "latitude": 29.588382,
      "state": "Texas",
      "address": "16104 University Oak,",
      "zip": 78249,
      "id": 219
    },
    {
      "zip": 78209,
      "address": "1400 Austin Hwy",
      "id": 220,
      "latitude": 29.491335,
      "state": "Texas",
      "city": "San Antonio",
      "name": "El Antonio's Hacienda Ballroom",
      "longitude": -98.438721
    },
    {
      "latitude": 29.430875,
      "state": "Texas",
      "zip": 78237,
      "address": "4906 West Commerce",
      "id": 221,
      "city": "San Antonio",
      "name": "El Cabaret",
      "longitude": -98.557919
    },
    {
      "longitude": -98.59884525,
      "city": "San Antonio",
      "name": "El Camaroncito",
      "id": 222,
      "address": "411 Old Highway 90 West",
      "zip": 78237,
      "state": "Texas",
      "latitude": 29.4082105
    },
    {
      "latitude": 29.517576,
      "state": "Texas",
      "address": "2611 Wagon Wheel",
      "zip": 78217,
      "id": 223,
      "city": "San Antonio",
      "name": "El Caribe",
      "longitude": -98.449039
    },
    {
      "id": 224,
      "address": "1134 N. Flores",
      "zip": 78212,
      "state": "Texas",
      "latitude": 29.436585,
      "name": "El Chamizal Nightclub",
      "city": "San Antonio",
      "longitude": -98.501578
    },
    {
      "city": "San Antonio",
      "longitude": -98.48429,
      "name": "El Fandango",
      "latitude": 29.40709,
      "state": "Texas",
      "zip": 78210,
      "address": "114 West Carolina",
      "id": 225
    },
    {
      "state": "Texas",
      "latitude": 29.564953,
      "id": 226,
      "zip": 78216,
      "address": "13421 San Pedro Ave",
      "city": "San Antonio",
      "name": "El Jarro",
      "longitude": -98.484105
    },
    {
      "name": "El Luchador Bar",
      "city": "San Antonio",
      "longitude": -98.485809,
      "state": "Texas",
      "latitude": 29.396998,
      "id": 227,
      "address": "622 Roosevelt Ave",
      "zip": 78210
    },
    {
      "city": "San Antonio",
      "name": "El Machito",
      "longitude": -98.479047,
      "latitude": 29.497587,
      "state": "Texas",
      "address": "7300 Jones Maltsberger Rd",
      "zip": 78209,
      "id": 228
    },
    {
      "city": "San Antonio",
      "name": "El Rancho Nite Club",
      "longitude": -98.49126,
      "latitude": 29.452192,
      "state": "Texas",
      "zip": 78212,
      "address": "1134 N. Flores",
      "id": 229
    },
    {
      "name": "El Taxco",
      "city": "San Antonio",
      "longitude": -98.504612,
      "latitude": 29.430228,
      "state": "Texas",
      "zip": 78207,
      "address": "625 N. Medina",
      "id": 230
    },
    {
      "longitude": -98.551155,
      "city": "San Antonio",
      "name": "El Tropicano Nite Club",
      "zip": 78211,
      "address": "7167 Somerset Road",
      "id": 231,
      "latitude": 29.355528,
      "state": "Texas"
    },
    {
      "name": "El Venadito Club",
      "city": "San Antonio",
      "longitude": -98.495141,
      "latitude": 29.4246,
      "state": "Texas",
      "address": "117 1/2 N Flores",
      "zip": 78205,
      "id": 232
    },
    {
      "zip": 78218,
      "address": "1788 Austin Highway",
      "id": 233,
      "latitude": 29.498253,
      "state": "Texas",
      "name": "Elbow Room",
      "city": "San Antonio",
      "longitude": -98.423994
    },
    {
      "city": "San Antonio",
      "longitude": -98.5486534017857,
      "name": "Element Ultra Lounge",
      "latitude": 29.4527155,
      "state": "Texas",
      "zip": 78228,
      "address": "1581 Bandera Road",
      "id": 234
    },
    {
      "city": "San Antonio",
      "name": "Embers Wood Fire Grill & Bar",
      "longitude": -98.563897,
      "zip": 78230,
      "address": "9818 Interstate 10 Frontage Rd",
      "id": 235,
      "latitude": 29.531352,
      "state": "Texas"
    },
    {
      "latitude": 29.4246,
      "state": "Texas",
      "address": "Nacogdoches Rd",
      "zip": 78217,
      "id": 236,
      "name": "Engle's Place",
      "city": "San Antonio",
      "longitude": -98.495141
    },
    {
      "id": 237,
      "zip": 78209,
      "address": "1375 Austin Hwy,",
      "state": "Texas",
      "latitude": 29.491199,
      "name": "Epic Bar",
      "city": "San Antonio",
      "longitude": -98.439479
    },
    {
      "address": "922 San Pedro Ave",
      "zip": 78212,
      "id": 238,
      "latitude": 29.442633,
      "state": "Texas",
      "city": "San Antonio",
      "longitude": -98.499039,
      "name": "Esperanza Peace & Justice Center"
    },
    {
      "id": 239,
      "zip": 78212,
      "address": "2217 Blanco Road",
      "state": "Texas",
      "latitude": 29.45542,
      "name": "Eva's Cozy Spot",
      "city": "San Antonio",
      "longitude": -98.50761
    },
    {
      "name": "Evil Olive Elixir Lounge",
      "city": "San Antonio",
      "longitude": -98.441134,
      "zip": 78247,
      "address": "2950 Thousand Oaks",
      "id": 240,
      "latitude": 29.576844,
      "state": "Texas"
    },
    {
      "city": "Castroville",
      "name": "Fantastic 60s",
      "longitude": -98.865332,
      "latitude": 29.355849,
      "state": "Texas",
      "zip": 78009,
      "address": "611 HWY 90",
      "id": 241
    },
    {
      "latitude": 29.354416,
      "state": "Texas",
      "zip": 78221,
      "address": "2502 Pleasanton Road",
      "id": 242,
      "city": "San Antonio",
      "name": "Far West Event Center",
      "longitude": -98.503102
    },
    {
      "name": "Farmer's Daughter",
      "city": "San Antonio",
      "longitude": -98.394889,
      "state": "Texas",
      "latitude": 29.41923,
      "id": 243,
      "address": "5432 WW White",
      "zip": 78222
    },
    {
      "latitude": 29.470225,
      "state": "Texas",
      "address": "1743 Bandera Road",
      "zip": 78228,
      "id": 244,
      "city": "San Antonio",
      "name": "Fatso's BBQ",
      "longitude": -98.572736
    },
    {
      "latitude": 29.698681,
      "state": "Texas",
      "zip": 78130,
      "address": "499 South Castell",
      "id": 245,
      "longitude": -98.120295,
      "city": "New Braunfels",
      "name": "Faust Brewery"
    },
    {
      "name": "Feast Restaurant",
      "city": "San Antonio",
      "longitude": -98.491053,
      "latitude": 29.413353,
      "state": "Texas",
      "zip": 78210,
      "address": "1024 S Alamo St",
      "id": 246
    },
    {
      "longitude": -98.452881,
      "city": "San Antonio",
      "name": "Fiasco's",
      "zip": 78232,
      "address": "2250 Thousand Oaks",
      "id": 247,
      "latitude": 29.587551,
      "state": "Texas"
    },
    {
      "name": "Fiesta Ballroom",
      "city": "Seguin",
      "longitude": -97.957016,
      "latitude": 29.598297,
      "state": "Texas",
      "address": "735 IH 10",
      "zip": 78155,
      "id": 248
    },
    {
      "id": 249,
      "address": "1112 Pleasanton Road",
      "zip": 78214,
      "state": "Texas",
      "latitude": null,
      "name": "Fiesta Club",
      "city": "San Antonio",
      "longitude": null
    },
    {
      "city": "San Antonio",
      "longitude": -98.499397,
      "name": "Fitzgerald's Bar and Live Music",
      "id": 250,
      "zip": 78216,
      "address": "437 McCarty Rd #101,",
      "state": "Texas",
      "latitude": 29.528875
    },
    {
      "id": 251,
      "address": "11335 FM 1863",
      "zip": 78132,
      "state": "Texas",
      "latitude": null,
      "longitude": null,
      "city": "New Braunfels",
      "name": "Five Stones Artisan Brewery"
    },
    {
      "id": 252,
      "zip": 78230,
      "address": "11255 Huebner Rd #212",
      "state": "Texas",
      "latitude": 29.547727,
      "name": "Flying Saucer Draught Emporium",
      "city": "San Antonio",
      "longitude": -98.577891
    },
    {
      "city": "San Antonio",
      "longitude": -98.665781,
      "name": "Fountain Bleu Banquet Hall",
      "latitude": 29.457955,
      "state": "Texas",
      "address": "8353 Culebra Road",
      "zip": 78251,
      "id": 253
    },
    {
      "name": "Fralo’s Art of Pizza",
      "city": "San Antonio",
      "longitude": -98.62779,
      "address": "23651 Interstate 10 Frontage Rd",
      "zip": 78257,
      "id": 254,
      "latitude": 29.66143,
      "state": "Texas"
    },
    {
      "name": "Franco's Lounge",
      "city": "San Antonio",
      "longitude": -98.52812,
      "state": "Texas",
      "latitude": 29.55471,
      "id": 255,
      "zip": 78231,
      "address": "10003 NW Military"
    },
    {
      "city": "San Antonio",
      "name": "Frankie G's Sports Bar",
      "longitude": -98.495141,
      "state": "Texas",
      "latitude": 29.4246,
      "id": 256,
      "address": "2008 Cupples Rd",
      "zip": 78226
    },
    {
      "state": "Texas",
      "latitude": 29.42597,
      "id": 257,
      "zip": 78219,
      "address": "3201 E Houston St",
      "longitude": -98.442844,
      "city": "San Antonio",
      "name": "Freeman Coliseum"
    },
    {
      "longitude": -98.482232,
      "city": "San Antonio",
      "name": "Freetail Taproom",
      "zip": 78210,
      "address": "2000 S Presa St",
      "id": 258,
      "latitude": 29.401606,
      "state": "Texas"
    },
    {
      "address": "2157 FM1101",
      "zip": 78130,
      "id": 259,
      "latitude": 29.716859,
      "state": "Texas",
      "longitude": -98.070143,
      "city": "New Braunfels",
      "name": "Freiheit Country Store"
    },
    {
      "city": "San Antonio",
      "longitude": -98.400135,
      "name": "Fuggawi",
      "state": "Texas",
      "latitude": 29.50904,
      "id": 260,
      "zip": 78218,
      "address": "8011 Webbles Drive"
    },
    {
      "name": "Fun Palace",
      "city": "San Antonio",
      "longitude": -98.594969,
      "latitude": 29.453734,
      "state": "Texas",
      "address": "3662 Culebra",
      "zip": 78228,
      "id": 261
    },
    {
      "name": "Gallagher's",
      "city": "San Antonio",
      "longitude": -98.601154,
      "latitude": 29.605492,
      "state": "Texas",
      "zip": 78230,
      "address": "9502 I-10 West",
      "id": 262
    },
    {
      "longitude": -98.53024,
      "city": "Shavano Park",
      "name": "Garden Tea Lounge",
      "state": "Texas",
      "latitude": 29.546753,
      "id": 263,
      "address": "2375 NW Military Hwy",
      "zip": 78231
    },
    {
      "city": "San Antonio",
      "longitude": -98.614705,
      "name": "Gasoline Alley",
      "zip": 78240,
      "address": "6800 Wurzbach",
      "id": 264,
      "latitude": 29.517654,
      "state": "Texas"
    },
    {
      "latitude": 29.432004,
      "state": "Texas",
      "address": "1111 Navarro St",
      "zip": 78205,
      "id": 265,
      "longitude": -98.49121,
      "city": "San Antonio",
      "name": "Gemini Ink"
    },
    {
      "address": "2139 Frio City Road",
      "zip": 78226,
      "id": 266,
      "latitude": 29.390292,
      "state": "Texas",
      "city": "San Antonio",
      "name": "Gennie's Lounge",
      "longitude": -98.542882
    },
    {
      "city": "San Antonio",
      "name": "George's Keep",
      "longitude": -98.606746,
      "latitude": 29.610892,
      "state": "Texas",
      "zip": 78256,
      "address": "17101 La Cantera Pkwy #1200",
      "id": 267
    },
    {
      "state": "Texas",
      "latitude": 29.452192,
      "id": 268,
      "address": "2803 N. St. Mary's",
      "zip": 78212,
      "city": "San Antonio",
      "longitude": -98.49126,
      "name": "GIG on the Strip"
    },
    {
      "address": "1500 Ackerman",
      "zip": 78219,
      "id": 269,
      "latitude": 29.452797,
      "state": "Texas",
      "name": "Golden Stallion",
      "city": "San Antonio",
      "longitude": -98.396637
    },
    {
      "name": "Graffiti's",
      "city": "San Antonio",
      "longitude": -98.558631,
      "state": "Texas",
      "latitude": 29.531469,
      "id": 270,
      "zip": 78230,
      "address": "3707 Colony Dr"
    },
    {
      "zip": 78229,
      "address": "4902 Fredricksburg Rd",
      "id": 271,
      "latitude": null,
      "state": "Texas",
      "longitude": null,
      "city": "San Antonio",
      "name": "Graham Central Station"
    },
    {
      "city": "San Antonio",
      "longitude": -98.6552,
      "name": "Grasshopper Club",
      "address": "8308 Marbach",
      "zip": 78227,
      "id": 272,
      "latitude": 29.41668,
      "state": "Texas"
    },
    {
      "longitude": -98.47462,
      "city": "San Antonio",
      "name": "Grayze on Grayson",
      "state": "Texas",
      "latitude": 29.44345,
      "id": 273,
      "address": "521 E Grayson St",
      "zip": 78215
    },
    {
      "city": "San Antonio",
      "name": "Great Jubilations",
      "longitude": -98.557075,
      "state": "Texas",
      "latitude": 29.496897,
      "id": 274,
      "address": "4841 Fredericksburg",
      "zip": 78229
    },
    {
      "id": 275,
      "zip": 78130,
      "address": "1281 Gruene Road",
      "state": "Texas",
      "latitude": 29.738324,
      "city": "New Braunfels",
      "name": "Gruene Hall",
      "longitude": -98.104462
    },
    {
      "city": "New Braunfels",
      "longitude": -98.16399,
      "name": "Guadalupe Brewing Company",
      "latitude": 29.684443,
      "state": "Texas",
      "zip": 78132,
      "address": "1586 Wald Road",
      "id": 276
    },
    {
      "city": "Seguin",
      "name": "Guadalupe County Coliseum",
      "longitude": null,
      "state": "Texas",
      "latitude": null,
      "id": 277,
      "zip": 78155,
      "address": "950 S. Austin Street"
    },
    {
      "state": "Texas",
      "latitude": 29.418601,
      "id": 278,
      "zip": 78207,
      "address": "1301 Guadalupe St.",
      "name": "Guadalupe Theatre",
      "city": "San Antonio",
      "longitude": -98.514563
    },
    {
      "name": "H&R",
      "city": "San Antonio",
      "longitude": -98.443293,
      "id": 279,
      "zip": 78223,
      "address": "1819 Goliad Road",
      "state": "Texas",
      "latitude": 29.36785
    },
    {
      "state": "Texas",
      "latitude": null,
      "id": 280,
      "address": "3127 Mission Road",
      "zip": 78214,
      "city": "San Antonio",
      "longitude": null,
      "name": "Hacienda Salas"
    },
    {
      "latitude": 29.51162,
      "state": "Texas",
      "zip": 78229,
      "address": "7959 Fredericksburg",
      "id": 281,
      "city": "San Antonio",
      "longitude": -98.568536,
      "name": "Half Price Books-Fredericksburg"
    },
    {
      "id": 282,
      "zip": 78216,
      "address": "10127 Coachlight",
      "state": "Texas",
      "latitude": null,
      "longitude": null,
      "city": "San Antonio",
      "name": "Hallelujah Hollywood"
    },
    {
      "latitude": 29.610993,
      "state": "Texas",
      "zip": 78266,
      "address": "18424 2nd St",
      "id": 283,
      "longitude": -98.320018,
      "city": "San Antonio",
      "name": "Hangin' Tree Saloon"
    },
    {
      "city": "San Antonio",
      "longitude": -98.489094,
      "name": "Hard Rock Cafe | San Antonio",
      "id": 284,
      "address": "111 W Crockett St #210",
      "zip": 78205,
      "state": "Texas",
      "latitude": 29.425241
    },
    {
      "city": "San Antonio",
      "name": "Hard Times Saloon and Party House",
      "longitude": -98.662743,
      "latitude": 29.512633,
      "state": "Texas",
      "address": "11523 Bandera Rd",
      "zip": 78250,
      "id": 285
    },
    {
      "address": "3185 Nacogdoches Road",
      "zip": 78217,
      "id": 286,
      "latitude": 29.52663,
      "state": "Texas",
      "city": "San Antonio",
      "name": "Harem Skarem",
      "longitude": -98.43842
    },
    {
      "zip": 78266,
      "address": "8306 Marbach Rd",
      "id": 287,
      "latitude": 29.417473,
      "state": "Texas",
      "longitude": -98.655165,
      "city": "San Antonio",
      "name": "HEAT Nightclub"
    },
    {
      "city": "Helotes",
      "longitude": -98.68627,
      "name": "Helotes Event Hall",
      "id": 288,
      "address": "16148 Bandera Rd",
      "zip": 78023,
      "state": "Texas",
      "latitude": 29.562804
    },
    {
      "longitude": -98.690339,
      "city": "Helotes",
      "name": "Helotes Inn",
      "id": 289,
      "zip": 78203,
      "address": "14405 Old Bandera ",
      "state": "Texas",
      "latitude": 29.576985
    },
    {
      "latitude": 29.42178,
      "state": "Texas",
      "zip": 78205,
      "address": "900 E Market St",
      "id": 290,
      "name": "Henry B. Gonzalez Convention Center",
      "city": "San Antonio",
      "longitude": -98.484022
    },
    {
      "latitude": 29.383429,
      "state": "Texas",
      "zip": 78223,
      "address": "3314 Clark Street",
      "id": 291,
      "longitude": -98.448047,
      "city": "San Antonio",
      "name": "Here it Tiz"
    },
    {
      "address": "1146 Austin Highway",
      "zip": 78209,
      "id": 292,
      "latitude": 29.486562,
      "state": "Texas",
      "name": "High Tide",
      "city": "San Antonio",
      "longitude": -98.448147
    },
    {
      "city": "San Antonio",
      "longitude": -98.431942,
      "name": "Hill Country Farmers Market",
      "state": "Texas",
      "latitude": 29.413165,
      "id": 293,
      "address": "18039 I- 10 Access Rd",
      "zip": 78220
    },
    {
      "state": "Texas",
      "latitude": 29.521533,
      "id": 294,
      "zip": 78230,
      "address": "8910 Callaghan Rd",
      "city": "San Antonio",
      "name": "Historic Jackson Ranch",
      "longitude": -98.540711
    },
    {
      "city": "San Antonio",
      "longitude": -98.479558,
      "name": "Historic Pearl",
      "state": "Texas",
      "latitude": 29.442508,
      "id": 295,
      "zip": 78215,
      "address": "303 Pearl Pkwy #300"
    },
    {
      "name": "Historic Sunset Station",
      "city": "San Antonio",
      "longitude": -98.478265,
      "id": 296,
      "zip": 78205,
      "address": "1174 E Commerce St",
      "state": "Texas",
      "latitude": 29.420533
    },
    {
      "city": "San Antonio",
      "longitude": -98.486872,
      "name": "Hi-Tones",
      "latitude": 29.447201,
      "state": "Texas",
      "zip": 78212,
      "address": "621 E Dewey Pl",
      "id": 297
    },
    {
      "city": "San Antonio",
      "longitude": -98.493988,
      "name": "Holiday Club",
      "latitude": 29.442997,
      "state": "Texas",
      "address": "1500 N Main Ave.",
      "zip": 78212,
      "id": 298
    },
    {
      "name": "Hollywood Cafe",
      "city": "San Antonio",
      "longitude": -98.60123,
      "zip": 78228,
      "address": "4318 Callaghan Road",
      "id": 299,
      "latitude": 29.466602,
      "state": "Texas"
    },
    {
      "longitude": -98.4646229,
      "city": "San Antonio",
      "name": "Hookah House At Bentleys",
      "id": 300,
      "address": "8123 Broadway",
      "zip": 78209,
      "state": "Texas",
      "latitude": 29.470119
    },
    {
      "city": "San Antonio",
      "longitude": -98.334337,
      "name": "Hooligan's Bar & Grill",
      "id": 301,
      "zip": 78233,
      "address": " 13920 I-35,",
      "state": "Texas",
      "latitude": 29.565831
    },
    {
      "state": "Texas",
      "latitude": 29.41361,
      "id": 302,
      "address": "1014 S Alamo Street",
      "zip": 78210,
      "name": "Hot Joy",
      "city": "San Antonio",
      "longitude": -98.490887
    },
    {
      "city": "San Antonio",
      "longitude": -98.49134,
      "name": "Hot Shot Night Club",
      "state": "Texas",
      "latitude": 29.429196,
      "id": 303,
      "address": "517 North St. Mary's",
      "zip": 78205
    },
    {
      "city": "San Antonio",
      "name": "Hot Tin Roof",
      "longitude": -98.5656356587302,
      "id": 304,
      "address": "7710 Frontage Road",
      "zip": 78230,
      "state": "Texas",
      "latitude": 29.5358535
    },
    {
      "name": "Hotel Discotheque",
      "city": "San Antonio",
      "longitude": -98.488894,
      "state": "Texas",
      "latitude": 29.610914,
      "id": 305,
      "zip": 78258,
      "address": "18326 Tuscany Stone"
    },
    {
      "address": "1015 Navarro St",
      "zip": 78205,
      "id": 306,
      "latitude": 29.430796,
      "state": "Texas",
      "city": "San Antonio",
      "longitude": -98.489854,
      "name": "Hotel Havana"
    },
    {
      "city": "San Antonio",
      "name": "Howl at the Moon",
      "longitude": -98.489094,
      "id": 307,
      "zip": 78205,
      "address": " 111 W Crockett St",
      "state": "Texas",
      "latitude": 29.425241
    },
    {
      "address": "2734 N. St. Mary's",
      "zip": 78212,
      "id": 308,
      "latitude": 29.45112,
      "state": "Texas",
      "longitude": -98.48522,
      "city": "San Antonio",
      "name": "Huey's"
    },
    {
      "city": "San Antonio",
      "longitude": -98.681267,
      "name": "Hyatt Hill Country Resort",
      "latitude": 29.461875,
      "state": "Texas",
      "address": "9800 Hyatt Resort D",
      "zip": 78251,
      "id": 309
    },
    {
      "address": "1031 Patricia Dr.",
      "zip": 78213,
      "id": 310,
      "latitude": 29.545451,
      "state": "Texas",
      "city": "San Antonio",
      "name": "Iguana Bay Bar & Grill",
      "longitude": -98.512088
    },
    {
      "latitude": 29.413735,
      "state": "Texas",
      "address": "2823 Martin Luther King Dr",
      "zip": 78220,
      "id": 311,
      "name": "Illusions Night Club",
      "city": "San Antonio",
      "longitude": -98.441172
    },
    {
      "name": "Illusions Theatre at the Alamodome",
      "city": "San Antonio",
      "longitude": -98.478756,
      "zip": 78203,
      "address": "100 Montana S",
      "id": 312,
      "latitude": 29.416871,
      "state": "Texas"
    },
    {
      "longitude": -98.648709,
      "city": "San Antonio",
      "name": "Imagine Books & Records",
      "id": 313,
      "address": " 8373 Culebra Rd #201b",
      "zip": 78251,
      "state": "Texas",
      "latitude": 29.470486
    },
    {
      "city": "San Antonio",
      "name": "Institute of Texan Cultures",
      "longitude": -98.482218,
      "latitude": 29.416617,
      "state": "Texas",
      "address": "801 E César E. Chávez Blvd",
      "zip": 78205,
      "id": 314
    },
    {
      "city": "San Antonio",
      "longitude": -98.542512,
      "name": "International Folk Culture Center",
      "state": "Texas",
      "latitude": 29.425622,
      "id": 315,
      "address": "411 SW 24th St, ",
      "zip": 78207
    },
    {
      "city": "San Antonio",
      "longitude": -98.5813429,
      "name": "Club Iries",
      "latitude": 29.511125,
      "state": "Texas",
      "address": "7920 Fredericksburg",
      "zip": 78229,
      "id": 316
    },
    {
      "latitude": 29.52776,
      "state": "Texas",
      "address": "9726 Datapoint Dr",
      "zip": 78229,
      "id": 317,
      "city": "San Antonio",
      "name": "Irish Pub",
      "longitude": -98.564748
    },
    {
      "longitude": -98.482663,
      "city": "San Antonio",
      "name": "Iron Armadillo",
      "state": "Texas",
      "latitude": 29.450211,
      "id": 318,
      "address": "2411 Broadway",
      "zip": 78215
    },
    {
      "city": "San Antonio",
      "name": "Iskcon Mission Society",
      "longitude": -98.575315,
      "id": 319,
      "address": "103 Bernice Dr",
      "zip": 78228,
      "state": "Texas",
      "latitude": 29.44224
    },
    {
      "state": "Texas",
      "latitude": 29.489438,
      "id": 320,
      "address": "1201 Austin Highway",
      "zip": null,
      "city": null,
      "longitude": -98.44681,
      "name": "Ivory Lounge & Nightclub"
    },
    {
      "zip": 78221,
      "address": "10703 Pleasanton Rd",
      "id": 321,
      "latitude": 29.311123,
      "state": "Texas",
      "name": "Izzy's Party House",
      "city": "San Antonio",
      "longitude": -98.50271
    },
    {
      "latitude": 29.495242,
      "state": "Texas",
      "zip": 78216,
      "address": "6322 San Pedro Ave",
      "id": 322,
      "city": "San Antonio",
      "name": "Jack Rabbit",
      "longitude": -98.498718
    },
    {
      "id": 323,
      "zip": 78247,
      "address": "2950 Thousand Oaks",
      "state": "Texas",
      "latitude": 29.574315,
      "longitude": 98.439556,
      "city": "San Antonio",
      "name": "Jack's Bar"
    },
    {
      "id": 324,
      "address": "1514 W Commerce",
      "zip": 78207,
      "state": "Texas",
      "latitude": 29.426449,
      "city": "San Antonio",
      "name": "Jaime's Place",
      "longitude": -98.511694
    },
    {
      "zip": 78212,
      "address": "2623 N St Mary's St",
      "id": 325,
      "latitude": 29.450367,
      "state": "Texas",
      "longitude": -98.487419,
      "city": "San Antonio",
      "name": "JAM Factory"
    },
    {
      "city": "San Antonio",
      "longitude": -98.495141,
      "name": "Jandro's Garden Patio",
      "state": "Texas",
      "latitude": 29.4246,
      "id": 326,
      "zip": 78205,
      "address": "120 Villita "
    },
    {
      "address": "312 Pearl Parkway, Bld. #6 Suite #6001",
      "zip": 78215,
      "id": 327,
      "latitude": 29.443165,
      "state": "Texas",
      "city": "San Antonio",
      "longitude": -98.480251,
      "name": "Jazz, TX"
    },
    {
      "latitude": 29.524766,
      "state": "Texas",
      "address": "12536 Nacogdoches",
      "zip": 78217,
      "id": 328,
      "longitude": -98.457242,
      "city": "San Antonio",
      "name": "Jerry Dean's"
    },
    {
      "latitude": null,
      "state": "Texas",
      "address": "1639 E. Bitters",
      "zip": 78216,
      "id": 329,
      "longitude": null,
      "city": "San Antonio",
      "name": "Jiggers"
    },
    {
      "address": "8779 Wurzbach Road",
      "zip": 78240,
      "id": 330,
      "latitude": 29.524535,
      "state": "Texas",
      "city": "San Antonio",
      "longitude": -98.569404,
      "name": "Jilly's"
    },
    {
      "latitude": 29.51969,
      "state": "Texas",
      "address": "1010 NW Loop 410",
      "zip": 78213,
      "id": 331,
      "city": "San Antonio",
      "name": "Jimenez Restaurant and Bar",
      "longitude": -98.508026
    },
    {
      "state": "Texas",
      "latitude": 29.517432,
      "id": 332,
      "zip": 78217,
      "address": "2617 Wagonwheel",
      "name": "JJ's",
      "city": "San Antonio",
      "longitude": -98.448878
    },
    {
      "city": "San Antonio",
      "name": "JK's",
      "longitude": -98.597758,
      "latitude": 29.484525,
      "state": "Texas",
      "zip": 78238,
      "address": "5607 Kenwick",
      "id": 333
    },
    {
      "city": "San Antonio",
      "longitude": -98.458731,
      "name": "Jo Long Theatre",
      "latitude": 29.426962,
      "state": "Texas",
      "zip": 78202,
      "address": "226 N Hackenberry",
      "id": 334
    },
    {
      "name": "Joe Blue's",
      "city": "San Antonio",
      "longitude": -98.495422,
      "id": 335,
      "zip": 78210,
      "address": "1414 S Alamo St Ste 1420",
      "state": "Texas",
      "latitude": 29.409866
    },
    {
      "id": 336,
      "address": " 1420 S Alamo St",
      "zip": 78210,
      "state": "Texas",
      "latitude": 29.409751,
      "city": "San Antonio",
      "name": "Joe's Blues",
      "longitude": -98.495732
    },
    {
      "zip": 78223,
      "address": "5023 S. Presa",
      "id": 337,
      "latitude": 29.371175,
      "state": "Texas",
      "name": "Joe's Corner Saloon",
      "city": "San Antonio",
      "longitude": -98.472632
    },
    {
      "state": "Texas",
      "latitude": 29.46404,
      "id": 338,
      "zip": 78238,
      "address": "6844 Ingram Rd",
      "longitude": -98.625053,
      "city": "San Antonio",
      "name": "Joe's Volcano"
    },
    {
      "city": "Helotes",
      "longitude": -98.69053,
      "name": "John T. Floore's Country Store",
      "zip": 78023,
      "address": "14492 Old Bandera Rd",
      "id": 339,
      "latitude": 29.57787,
      "state": "Texas"
    },
    {
      "city": "San Antonio",
      "name": "Johnny Lew Ice",
      "longitude": -98.52625,
      "zip": 78201,
      "address": "1717 West Avenue",
      "id": 340,
      "latitude": 29.477554,
      "state": "Texas"
    },
    {
      "latitude": 29.345947,
      "state": "Texas",
      "address": "3114 Commercial Avenue",
      "zip": 78221,
      "id": 341,
      "name": "Jolly Joker",
      "city": "San Antonio",
      "longitude": -98.51594
    },
    {
      "id": 342,
      "address": "17200 TX-16",
      "zip": 78023,
      "state": "Texas",
      "latitude": 29.602995,
      "name": "Josabi's Acres",
      "city": "Helotes",
      "longitude": -98.706825
    },
    {
      "state": "Texas",
      "latitude": 29.447399,
      "id": 343,
      "zip": 78212,
      "address": "339 W Josephine St.",
      "city": "San Antonio",
      "name": "Josephine Theatre",
      "longitude": -98.485972
    },
    {
      "city": "San Antonio",
      "longitude": -98.487581,
      "name": "Joseph's Foodliner",
      "id": 344,
      "zip": 78212,
      "address": "2410 N. St. Mary's",
      "state": "Texas",
      "latitude": 29.448567
    },
    {
      "state": "Texas",
      "latitude": null,
      "id": 345,
      "zip": 78232,
      "address": "16260 San Pedro",
      "longitude": null,
      "city": "San Antonio",
      "name": "Judge's"
    },
    {
      "id": 346,
      "zip": 78205,
      "address": "244 W Houston St.",
      "state": "Texas",
      "latitude": 29.447399,
      "city": "San Antonio",
      "longitude": -98.485972,
      "name": "Juniper Tar"
    },
    {
      "latitude": 30.146324,
      "state": "Texas",
      "address": "9323 Perrin Beitel",
      "zip": null,
      "id": 347,
      "name": "Just Country",
      "city": null,
      "longitude": -94.64242
    },
    {
      "city": "San Antonio",
      "name": "JW S Bracken Saloon",
      "longitude": -98.324201,
      "address": "18400 FM 2252",
      "zip": 78266,
      "id": 348,
      "latitude": 29.610246,
      "state": "Texas"
    },
    {
      "latitude": 29.501472,
      "state": "Texas",
      "address": "2017 Austin Hwy",
      "zip": 78218,
      "id": 349,
      "city": "San Antonio",
      "name": "K T Dance Hall",
      "longitude": -98.4162499
    },
    {
      "longitude": -98.511048,
      "city": "San Antonio",
      "name": "K23 Gallery",
      "latitude": 29.449304,
      "state": "Texas",
      "zip": 78201,
      "address": "704 Fredericksburg Rd",
      "id": 350
    },
    {
      "city": "San Antonio",
      "name": "Kelly Bar Patio",
      "longitude": -98.54299,
      "state": "Texas",
      "latitude": 29.389986,
      "id": 351,
      "zip": 78226,
      "address": "2433 Frio City Rd"
    },
    {
      "city": null,
      "longitude": -100.872166,
      "name": "Kelly Field Terrace",
      "zip": null,
      "address": "corner Mission and Mitchell Road",
      "id": 352,
      "latitude": 32.400862,
      "state": "Texas"
    },
    {
      "city": "China Grove",
      "name": "Kelly's Archway",
      "longitude": -98.354009,
      "state": "Texas",
      "latitude": 29.389727,
      "id": 353,
      "zip": 78263,
      "address": "6894 US Hwy 87 E"
    },
    {
      "city": "Boerne",
      "name": "Kendalia Halle",
      "longitude": -98.73197,
      "state": "Texas",
      "latitude": 29.794664,
      "id": 354,
      "zip": 78006,
      "address": "1135 FM 3351"
    },
    {
      "id": 355,
      "address": "728 Iowa St",
      "zip": 78203,
      "state": "Texas",
      "latitude": 29.4246,
      "longitude": -98.495141,
      "city": "San Antonio",
      "name": "Keyhole (#1)"
    },
    {
      "longitude": -98.514974,
      "city": "San Antonio",
      "name": "Keyhole (#2)",
      "state": "Texas",
      "latitude": 29.440115,
      "id": 356,
      "address": "1619 W. Poplar St.",
      "zip": 78207
    },
    {
      "city": null,
      "name": "Keystone Club",
      "longitude": -98.871984,
      "id": 357,
      "zip": null,
      "address": "5152 Fredericksburg",
      "state": "Texas",
      "latitude": 30.275201
    },
    {
      "name": "King Armadillo",
      "city": "San Antonio",
      "longitude": -98.52537,
      "latitude": 29.473387,
      "state": "Texas",
      "zip": 78201,
      "address": "1824 West Olmos",
      "id": 358
    },
    {
      "longitude": -98.523695,
      "city": "San Antonio",
      "name": "King Arthur's Court",
      "latitude": 29.510289,
      "state": "Texas",
      "zip": 78213,
      "address": "1903 Jackson Keller Rd",
      "id": 359
    },
    {
      "address": "123 Loop 1604 NE",
      "zip": 78232,
      "id": 360,
      "latitude": 29.610072,
      "state": "Texas",
      "name": "Kirby's Steakhouse",
      "city": "San Antonio",
      "longitude": -98.488566
    },
    {
      "city": "San Antonio",
      "name": "Klub Amnesia",
      "longitude": -98.49303,
      "state": "Texas",
      "latitude": 29.39356,
      "id": 361,
      "address": "520 Roosevelt Ave",
      "zip": 78210
    },
    {
      "name": "Knave Pub",
      "city": "San Antonio",
      "longitude": -98.439574,
      "state": "Texas",
      "latitude": 29.491443,
      "id": 362,
      "address": "1375 Austin Hwy",
      "zip": 78209
    },
    {
      "id": 363,
      "zip": 78213,
      "address": "2026 Basse Road",
      "state": "Texas",
      "latitude": 29.488588,
      "city": "San Antonio",
      "name": "Knight Time Lounge",
      "longitude": -98.519089
    },
    {
      "address": "416 E Pecan St",
      "zip": 78205,
      "id": 364,
      "latitude": 29.428616,
      "state": "Texas",
      "city": "San Antonio",
      "longitude": -98.488436,
      "name": "Kopy Kat Klub"
    },
    {
      "city": "New Braunfels",
      "name": "Krause's Cafe and Biergarten",
      "longitude": -98.124995,
      "address": "148 S Castell Ave",
      "zip": 78130,
      "id": 365,
      "latitude": 29.701212,
      "state": "Texas"
    },
    {
      "id": 366,
      "address": "6870 East Highway 87",
      "zip": null,
      "state": "Texas",
      "latitude": 30.146324,
      "name": "Krueger's Bar and Party House",
      "city": null,
      "longitude": -94.64242
    },
    {
      "city": "San Antonio",
      "name": "La Bamba Super Nite Club",
      "longitude": -98.55613,
      "id": 367,
      "zip": 78211,
      "address": "1621 Quintana Rd",
      "state": "Texas",
      "latitude": 29.37309
    },
    {
      "longitude": -98.485413,
      "city": "San Antonio",
      "name": "La Botanica",
      "latitude": 29.452288,
      "state": "Texas",
      "address": "2911 N. Saint Mary's St.",
      "zip": 78212,
      "id": 368
    },
    {
      "latitude": 29.452524,
      "state": "Texas",
      "zip": 78212,
      "address": "2415 N Main Ave",
      "id": 369,
      "city": "San Antonio",
      "name": "La Fonda on Main",
      "longitude": -98.494174
    },
    {
      "state": "Texas",
      "latitude": null,
      "id": 370,
      "zip": 78212,
      "address": "2702 N. St. Mary's",
      "longitude": null,
      "city": "San Antonio",
      "name": "La Playa"
    },
    {
      "zip": 78205,
      "address": "303 Blum St",
      "id": 371,
      "latitude": 29.424069,
      "state": "Texas",
      "city": "San Antonio",
      "name": "La Quinta Inn and Suites Riverwalk",
      "longitude": -98.482547
    },
    {
      "address": "4906 West Commerce",
      "zip": 78237,
      "id": 372,
      "latitude": 29.430875,
      "state": "Texas",
      "city": "San Antonio",
      "longitude": -98.557919,
      "name": "La Rancherita Night Club"
    },
    {
      "longitude": -96.56253,
      "city": null,
      "name": "La Rumba Nite Club",
      "state": "Texas",
      "latitude": 29.70536,
      "id": 373,
      "address": "411 Old Hwy 90",
      "zip": null
    },
    {
      "city": "San Antonio",
      "longitude": -98.49602,
      "name": "La Tuna Grill",
      "address": "100 Probandt",
      "zip": 78204,
      "id": 374,
      "latitude": 29.407601,
      "state": "Texas"
    },
    {
      "city": "San Antonio",
      "longitude": -98.496118,
      "name": "La Tuna Icehouse",
      "zip": 78204,
      "address": "100 Probandt",
      "id": 375,
      "latitude": 29.407724,
      "state": "Texas"
    },
    {
      "id": 376,
      "zip": 78121,
      "address": "12301 US-87 West",
      "state": "Texas",
      "latitude": 29.344801,
      "city": "La Vernia",
      "name": "La Vernia Chamber of Commerce Hall",
      "longitude": -98.108521
    },
    {
      "id": 377,
      "zip": 78205,
      "address": " 418 Villita St",
      "state": "Texas",
      "latitude": 29.421754,
      "city": "San Antonio",
      "name": "La Villita Historic Arts Village",
      "longitude": -98.489115
    },
    {
      "city": "San Antonio",
      "name": "Laboratory Brewing Company",
      "longitude": null,
      "state": "Texas",
      "latitude": null,
      "id": 378,
      "address": "7310 Jones Maltsberger",
      "zip": 78209
    },
    {
      "longitude": null,
      "city": "San Antonio",
      "name": "Lamp Post Lounge",
      "id": 379,
      "zip": 78218,
      "address": "1571 Austin Highway",
      "state": "Texas",
      "latitude": null
    },
    {
      "state": "Texas",
      "latitude": null,
      "id": 380,
      "zip": 78207,
      "address": "1514 W César E Chávez Blvd",
      "longitude": null,
      "city": "San Antonio",
      "name": "Lanier High School"
    },
    {
      "longitude": null,
      "city": null,
      "name": "Larry's Cantina",
      "id": 381,
      "address": "10929 Nacogdoches",
      "zip": null,
      "state": "Texas",
      "latitude": null
    },
    {
      "latitude": null,
      "state": "Texas",
      "address": "2219 South Flores",
      "zip": null,
      "id": 382,
      "longitude": null,
      "city": null,
      "name": "Larry's Lounge"
    },
    {
      "latitude": 33.2471342,
      "state": "Texas",
      "address": "2303 East Commerce",
      "zip": null,
      "id": 383,
      "city": null,
      "longitude": -95.9000439,
      "name": "Lartos Lounge"
    },
    {
      "id": 384,
      "address": "112 College Street",
      "zip": 78205,
      "state": "Texas",
      "latitude": 29.425479,
      "city": "San Antonio",
      "name": "Las Canarias",
      "longitude": -98.490452
    },
    {
      "name": "Las Chiladas",
      "city": "Shavano Park",
      "longitude": -98.528073,
      "zip": 78231,
      "address": "2387 NW Military HWY",
      "id": 385,
      "latitude": 29.545044,
      "state": "Texas"
    },
    {
      "longitude": -98.489797,
      "city": "San Antonio",
      "name": "Las Ramblas at The Hotel Contessa",
      "state": "Texas",
      "latitude": 29.423078,
      "id": 386,
      "zip": 78205,
      "address": "306 W Market St, "
    },
    {
      "state": "Texas",
      "latitude": null,
      "id": 387,
      "address": "1019 El Paso",
      "zip": 78207,
      "city": "San Antonio",
      "name": "Las Vegas Night Club",
      "longitude": null
    },
    {
      "city": null,
      "name": "Last National Bank",
      "longitude": null,
      "id": 388,
      "zip": null,
      "address": "10127 Coachlight",
      "state": "Texas",
      "latitude": null
    },
    {
      "state": "Texas",
      "latitude": 29.37815,
      "id": 389,
      "zip": 78214,
      "address": "1807 Mission Road",
      "city": "San Antonio",
      "name": "Last Stand",
      "longitude": -98.489266
    },
    {
      "name": "Laugh Out Loud Comedy Club",
      "city": "San Antonio",
      "longitude": null,
      "address": "326 East Market Rd",
      "zip": 78205,
      "id": 390,
      "latitude": null,
      "state": "Texas"
    },
    {
      "id": 391,
      "address": " One Trinity Pl",
      "zip": 78212,
      "state": "Texas",
      "latitude": 29.463303,
      "city": "San Antonio",
      "name": "Trinity University",
      "longitude": -98.482574
    },
    {
      "city": "San Antonio",
      "name": "Le Bistro Restaurant and Bar",
      "longitude": -98.498895,
      "id": 392,
      "address": "114 Produce Row",
      "zip": 78207,
      "state": "Texas",
      "latitude": 29.425109
    },
    {
      "state": "Texas",
      "latitude": 29.519649,
      "id": 393,
      "zip": 78216,
      "address": "618 NW Loop 410",
      "name": "Lejac Club",
      "city": "San Antonio",
      "longitude": -98.500956
    },
    {
      "city": "San Antonio",
      "name": "Leon Valley Bar and Grill",
      "longitude": null,
      "zip": 78238,
      "address": "7007 Bandera Road",
      "id": 394,
      "latitude": null,
      "state": "Texas"
    },
    {
      "city": "San Antonio",
      "longitude": null,
      "name": "Lerma's Nite Club",
      "zip": 78201,
      "address": "1602 N. Zarzamora Street",
      "id": 395,
      "latitude": null,
      "state": "Texas"
    },
    {
      "name": "Let's Go Bottom Up",
      "city": null,
      "longitude": -98.509654,
      "address": "542 Fredericksburg",
      "zip": null,
      "id": 396,
      "latitude": 29.44792,
      "state": "Texas"
    },
    {
      "longitude": -98.492443,
      "city": "San Antonio",
      "name": "Liberty Bar",
      "latitude": 29.412413,
      "state": "Texas",
      "zip": 78210,
      "address": " 1111 S Alamo St",
      "id": 397
    },
    {
      "latitude": 29.419727,
      "state": "Texas",
      "address": "3052 East Commerce St",
      "zip": 78220,
      "id": 398,
      "name": "Li'L Hut Lounge",
      "city": "San Antonio",
      "longitude": -98.441012
    },
    {
      "id": 399,
      "zip": 78205,
      "address": "200 E Market St",
      "state": "Texas",
      "latitude": 29.422052,
      "city": "San Antonio",
      "longitude": -98.486184,
      "name": "Lila Cockrell Theatre"
    },
    {
      "longitude": -98.486924,
      "city": "San Antonio",
      "name": "Limelight",
      "address": "2719 N St Mary's St",
      "zip": 78212,
      "id": 400,
      "latitude": 29.450511,
      "state": "Texas"
    },
    {
      "id": 401,
      "address": "722 S. St. Mary's",
      "zip": null,
      "state": "Texas",
      "latitude": 30.146324,
      "city": null,
      "name": "Limon's Lounge",
      "longitude": -94.64242
    },
    {
      "zip": 78220,
      "address": "3820 Parkdale",
      "id": 402,
      "latitude": 29.525908,
      "state": "Texas",
      "longitude": -98.560251,
      "city": "San Antonio",
      "name": "Lindbergh's"
    },
    {
      "state": "Texas",
      "latitude": 29.519642,
      "id": 403,
      "address": " 842 NW Loop 410 Suite 115",
      "zip": 78216,
      "name": "Lion and Rose British Restaurant and Pub - Park North",
      "city": "San Antonio",
      "longitude": -98.506294
    },
    {
      "address": "17627 La Cantera Pkwy",
      "zip": 78257,
      "id": 404,
      "latitude": 29.608714,
      "state": "Texas",
      "city": "San Antonio",
      "name": "Lion and Rose British Restaurant and Pub -La Cantera",
      "longitude": -98.596909
    },
    {
      "city": "San Antonio",
      "name": "Little Italy Restaurant",
      "longitude": -98.506395,
      "address": "824 Afterglow St.",
      "zip": 78216,
      "id": 405,
      "latitude": 29.547487,
      "state": "Texas"
    },
    {
      "state": "Texas",
      "latitude": 29.524766,
      "id": 406,
      "address": "8816 Broadway",
      "zip": 78217,
      "name": "Little Jamaica Bar and Grill",
      "city": "San Antonio",
      "longitude": -98.457242
    },
    {
      "state": "Texas",
      "latitude": 28.548039,
      "id": 407,
      "address": "1602 N. Zarzamora Street",
      "zip": null,
      "longitude": -99.489765,
      "city": null,
      "name": "Little Las Vegas Club"
    },
    {
      "name": "Little Nashville",
      "city": "Universal City",
      "longitude": -98.306704,
      "id": 408,
      "zip": 78148,
      "address": "1805 Pat Booker Road",
      "state": "Texas",
      "latitude": 29.55335
    },
    {
      "latitude": 29.398021,
      "state": "Texas",
      "address": "1836 South Hackberry St.",
      "zip": 78210,
      "id": 409,
      "city": "San Antonio",
      "longitude": -98.473186,
      "name": "Little Red Barn Steakhouse"
    },
    {
      "longitude": null,
      "city": "San Antonio",
      "name": "Local Motion",
      "state": "Texas",
      "latitude": null,
      "id": 410,
      "address": "123 Goliad Road",
      "zip": 78223
    },
    {
      "address": "310 Riverside",
      "zip": 78210,
      "id": 411,
      "latitude": 29.376992,
      "state": "Texas",
      "city": "San Antonio",
      "name": "Lone Star Corral",
      "longitude": -98.480784
    },
    {
      "city": "San Antonio",
      "longitude": -98.50761,
      "name": "Lonely Ladies",
      "state": "Texas",
      "latitude": 29.45542,
      "id": 412,
      "address": "2308 Blanco Road",
      "zip": 78212
    },
    {
      "id": 413,
      "address": "1174 East Commerce",
      "zip": 78205,
      "state": "Texas",
      "latitude": 29.420607,
      "city": "San Antonio",
      "name": "Lonestar Pavillion",
      "longitude": -98.478249
    },
    {
      "state": "Texas",
      "latitude": 29.482984,
      "id": 414,
      "zip": 78201,
      "address": "1620 Fredericksburg",
      "longitude": -98.534244,
      "city": "San Antonio",
      "name": "Loose Screws"
    },
    {
      "zip": 78212,
      "address": "4223 Blanco Rd",
      "id": 415,
      "latitude": 29.485864,
      "state": "Texas",
      "city": "San Antonio",
      "longitude": -98.508197,
      "name": "Los Barrios Mexican Restaurant"
    },
    {
      "city": "San Antonio",
      "longitude": -98.504116,
      "name": "Los Mesquites",
      "address": "9901 Moursund Blvd",
      "zip": 78221,
      "id": 416,
      "latitude": 29.318835,
      "state": "Texas"
    },
    {
      "name": "Los Padrinos",
      "city": "San Antonio",
      "longitude": null,
      "zip": 78201,
      "address": "2424 West Avenue",
      "id": 417,
      "latitude": null,
      "state": "Texas"
    },
    {
      "id": 418,
      "zip": 78217,
      "address": "4250 Thousand Oaks Dr",
      "state": "Texas",
      "latitude": 29.551858,
      "city": "San Antonio",
      "name": "Loyalty Lounge",
      "longitude": -98.410787
    },
    {
      "id": 419,
      "address": "6740 San Pedro Ave",
      "zip": 78216,
      "state": "Texas",
      "latitude": 29.501839,
      "city": "San Antonio",
      "name": "LUNA",
      "longitude": -98.498825
    },
    {
      "id": 420,
      "zip": 78212,
      "address": "1503 N Main Ave",
      "state": "Texas",
      "latitude": 29.442969,
      "city": "San Antonio",
      "longitude": -98.49451,
      "name": "Luther's Cafe"
    },
    {
      "name": "Luxello Hall",
      "city": "San Antonio",
      "longitude": null,
      "latitude": null,
      "state": "Texas",
      "zip": 78266,
      "address": "8640 East Evans",
      "id": 421
    },
    {
      "latitude": 30.275201,
      "state": "Texas",
      "address": "5562 Fredericksburg",
      "zip": null,
      "id": 422,
      "longitude": -98.871984,
      "city": null,
      "name": "Lyndy's Great Indoors"
    },
    {
      "longitude": -98.488242,
      "city": "San Antonio",
      "name": "Mad Dogs British Pub Riverwalk",
      "latitude": 29.425557,
      "state": "Texas",
      "zip": 78205,
      "address": "123 Losoya St #19",
      "id": 423
    },
    {
      "name": "Mad Michael's",
      "city": "San Antonio",
      "longitude": -98.499204,
      "address": "435 McCarty Road",
      "zip": 78216,
      "id": 424,
      "latitude": 29.529183,
      "state": "Texas"
    },
    {
      "name": "Maggiano’s Little Italy San Antonio",
      "city": "San Antonio",
      "longitude": -98.601263,
      "id": 425,
      "address": "17603 IH 10W",
      "zip": 78257,
      "state": "Texas",
      "latitude": 29.608477
    },
    {
      "id": 426,
      "zip": 78216,
      "address": "9715 San Pedro",
      "state": "Texas",
      "latitude": 29.529125,
      "city": "San Antonio",
      "longitude": -98.49827,
      "name": "Maggie's"
    },
    {
      "latitude": null,
      "state": "Texas",
      "zip": 78205,
      "address": "532 Riverwalk",
      "id": 427,
      "city": "San Antonio",
      "name": "Mai Tai",
      "longitude": null
    },
    {
      "state": "Texas",
      "latitude": 29.425308,
      "id": 428,
      "zip": 78205,
      "address": "111 Soledad St # 825",
      "longitude": -98.493258,
      "city": "San Antonio",
      "name": "Main Plaza Conservancy- San Antonio"
    },